index,city,country,meal_inexpensive,monthly_transport_ticket,one_liter_gasoline,utilities_915sqft,internet,monthly_gym_fee,monthly_preschool_one_child,center_city_1_bd,avg_monthly_salary,"City, Country",lat,lng,population
0,Seoul,South Korea,7.68,42.25,1.43,182.13,22.48,55.88,404.15,742.54,2689.62,"Seoul,South Korea",37.56,126.99,22394000
1,Shanghai,China,5.69,28.47,1.2,66,17.07,63.49,1382.62,1091.93,1419.87,"Shanghai,China",31.1667,121.4667,22118000
2,Guangzhou,China,4.13,28.47,1.19,59.65,16.66,34.17,555.18,533.28,1211.68,"Guangzhou,China",23.1288,113.259,21489000
3,Mumbai,India,3.68,4.91,1.35,43.57,9.33,25.37,107.07,522.4,640.81,"Mumbai,India",19.0758,72.8775,22186000
4,Delhi,India,4.91,11.67,1.24,58.07,7.95,21.2,74,229.84,586.46,"Delhi,India",28.6667,77.2167,31870000
5,Dhaka,Bangladesh,1.95,18.53,1.1,37.06,21.9,17.24,65.97,142.09,280.73,"Dhaka,Bangladesh",23.7289,90.3944,16839000
6,Jakarta,Indonesia,2.59,11.34,0.81,83.88,31.57,30.89,138.64,505.59,509.12,"Jakarta,Indonesia",-6.2146,106.8451,35362000
7,Shenzhen,China,4.27,35.59,1.19,67.63,18.21,51.65,660.93,738.75,1572.22,"Shenzhen,China",22.535,114.054,14678000
8,Bangkok,Thailand,2.74,37.44,1.21,79.55,15.46,57.33,512.24,594.58,629.84,"Bangkok,Thailand",13.75,100.5167,17573000
9,Karachi,Pakistan,2.24,11.18,1.05,66.56,20.72,16.52,51.71,113.5,166.86,"Karachi,Pakistan",24.86,67.01,15292000
10,Cairo,Egypt,4.07,13.23,0.4,26.53,16.37,23.44,146.82,196.83,200.4,"Cairo,Egypt",30.0444,31.2358,19787000
11,Mexico City,Mexico,7.74,15.69,1.2,48.85,26.67,45.15,329.13,766.53,718.92,"Mexico City,Mexico",19.4333,-99.1333,21505000
12,Lagos,Nigeria,3.71,33.77,0.39,28.27,52.83,40.01,129.58,1406.6,214.64,"Lagos,Nigeria",6.45,3.4,15487000
13,Beijing,China,4.27,42.71,1.2,55.64,20.83,57.48,980.31,1199.13,1562.35,"Beijing,China",39.904,116.4075,19437000
14,Moscow,Russia,12.8,38.4,0.85,145.92,8.3,52.91,632,1141.4,1452.41,"Moscow,Russia",55.7558,37.6178,17693000
15,Tokyo,Japan,7.45,74.45,1.24,171.22,32.85,73.85,553.74,1140.47,2868.8,"Tokyo,Japan",35.6839,139.7744,39105000
16,Manila,Philippines,3.59,12.04,1.4,98.89,37.97,50.24,258.66,541.63,429.13,"Manila,Philippines",14.6,120.9833,23971000
17,New York,United States,25,129,1.29,180.61,69.77,104.82,2444.17,3851.51,5944.31,"New York,United States",40.6943,-73.9249,18713220
18,Istanbul,Turkey,5.37,32.31,1.31,68.88,8.9,26.37,243.06,554.82,383.04,"Istanbul,Turkey",41.01,28.9603,15311000
19,Buenos Aires,Argentina,6.12,10,0.97,48.19,21.87,23.63,227.64,311.84,403.51,"Buenos Aires,Argentina",-34.5997,-58.3819,16216000
20,Bangalore,India,3.07,18.42,1.29,24.93,10.75,20.33,111.85,240.59,969.96,"Bangalore,India",12.9791,77.5913,13999000
21,Lahore,Pakistan,1.56,6.71,1.08,92.43,23.83,16.09,56.01,112.52,164.01,"Lahore,Pakistan",31.5497,74.3436,11148000
22,Chennai,India,2.18,12.28,1.32,33.92,9.48,17.77,71.79,180.73,552.68,"Chennai,India",13.0825,80.275,11564000
23,Chengdu,China,2.85,26.61,1.19,36.49,10.57,40.16,367.75,438.93,802.58,"Chengdu,China",30.66,104.0633,11920000
24,London,United Kingdom,18.45,184.5,2.16,299.36,35.92,52.08,1871.22,2417.07,4033.84,"London,United Kingdom",51.5072,-0.1275,11120000
25,Wuhan,China,3.56,42.71,1.19,40.46,14.71,43.66,355.89,350.19,963.86,"Wuhan,China",30.5872,114.2881,9729000
26,Tehran,Iran,4,16.41,0.72,21.1,13.96,20.43,132.6,541.33,294.97,"Tehran,Iran",35.7,51.4167,13819000
27,Paris,France,15.81,79.03,2.13,199.44,31.36,37.7,772.75,1365.19,2752.34,"Paris,France",48.8566,2.3522,11027000
28,Nagoya,Japan,7.45,74.45,1.23,206.04,31.57,67.01,657.66,844.28,2444.12,"Nagoya,Japan",35.1167,136.9333,9522000
29,Ho Chi Minh City,Vietnam,2.04,5.51,1.11,74.15,11.48,26.72,263.32,493.77,487.51,"Ho Chi Minh City,Vietnam",10.8167,106.6333,13954000
30,Los Angeles,United States,20,99.5,1.59,140.05,67.95,45.73,1361.25,2527.29,5456.15,"Los Angeles,United States",34.1139,-118.4068,12750807
31,Baoding,China,0,14.24,0,36.3,9.96,0,384.36,0,533.83,"Baoding,China",38.8671,115.4845,11860000
32,Lima,Peru,3.92,15.66,1.31,71.32,30.91,37.19,213.5,511.24,489.76,"Lima,Peru",-12.06,-77.0375,8992000
33,Rio de Janeiro,Brazil,6.71,48.09,1.38,93.12,20.1,27.66,472.6,396.55,363.15,"Rio de Janeiro,Brazil",-22.9083,-43.1964,12486000
34,Tianjin,China,4.27,15.78,1.2,76.64,11.08,42.71,565.86,391.48,875.36,"Tianjin,China",39.1467,117.2056,10932000
35,Nanyang,China,2.85,0,1.17,67.77,8.12,0,711.77,0,427.06,"Nanyang,China",32.9987,112.5292,10013600
36,Shijiazhuang,China,3.2,0,1.16,76.64,9.11,38.55,332.16,213.53,854.13,"Shijiazhuang,China",38.0422,114.5086,10784600
37,Zhengzhou,China,2.14,6.26,1.16,52.99,9.68,80.67,284.71,266.92,586.03,"Zhengzhou,China",34.7492,113.6605,10136000
38,Luanda,Angola,7.84,31.78,0.33,30.78,192.23,40.05,929.37,220.39,1428.77,"Luanda,Angola",-8.8383,13.2344,8883000
39,Weifang,China,2.85,0,1.16,45.79,6.41,0,0,0,0,"Weifang,China",36.7167,119.1,9373000
40,Linyi,China,2.85,12.81,0.95,67.77,8.12,0,284.71,213.53,569.42,"Linyi,China",35.0606,118.3425,10820000
41,Chicago,United States,20,80,1.39,163.78,62.56,58.26,1661.69,1969.12,4819.49,"Chicago,United States",41.8373,-87.6862,8604203
42,Hanoi,Vietnam,2.04,8.16,1.11,74.36,9.66,25.41,241.37,329.82,510.15,"Hanoi,Vietnam",21.0245,105.8412,8246600
43,Chongqing,China,2.85,56.94,1.19,45.92,10.91,27.51,355.89,273.32,747.36,"Chongqing,China",29.55,106.5069,8261000
44,Ganzhou,China,3.2,7.12,1.28,42.69,13.52,88.97,0,0,0,"Ganzhou,China",25.8292,114.9336,8677600
45,Ahmedabad,India,2.46,6.14,1.23,39.47,7.89,15.83,54.04,461.38,433.96,"Ahmedabad,India",23.03,72.58,7717000
46,Pune,India,3.68,11.05,1.39,25.46,9.57,20.63,86.38,219.79,803.85,"Pune,India",18.5196,73.8553,7948000
47,Foshan,China,2.85,7.12,1.19,49.82,16.66,64.06,555.18,355.89,960.9,"Foshan,China",23.0292,113.1056,7905700
48,Tongshan,China,3.56,28.47,1.19,40.46,14.71,28.47,284.71,384.36,727.43,"Tongshan,China",34.261,117.1859,8669000
49,Heze,China,0,0,0,92.53,14.24,0,0,0,0,"Heze,China",35.2333,115.4333,8287693
50,Changchun,China,2.85,8.54,1.16,53.62,11.86,42.11,284.71,320.3,1263.76,"Changchun,China",43.9,125.2,7674439
51,Nanjing,China,3.13,15.47,1.18,56.41,6.69,22.38,135.28,506.84,1146.18,"Nanjing,China",32.05,118.7667,7729000
52,Kuala Lumpur,Malaysia,3.42,22.79,0.48,53.07,25.49,40.72,261.57,438.4,1290.67,"Kuala Lumpur,Malaysia",3.1478,101.6953,8639000
53,Hefei,China,2.85,14.24,1.17,89.91,17.08,41.28,249.12,275.22,965.48,"Hefei,China",31.8639,117.2808,7457027
54,Dongguan,China,3.2,32.03,1.19,42.81,12.74,67.22,427.06,338.09,889.72,"Dongguan,China",23.0475,113.7493,8142000
55,Dongguan,China,3.2,32.03,1.19,42.81,12.74,67.22,427.06,338.09,889.72,"Dongguan,China",39.014,111.0768,75135
56,Jinan,China,2.85,5.69,1.17,67.77,8.12,72.6,565.86,289.67,782.95,"Jinan,China",36.6667,116.9833,7967400
57,Hong Kong,Hong Kong,7.7,64.18,2.77,199.78,22.84,72.41,768.16,2294.53,2994.43,"Hong Kong,Hong Kong",22.3069,114.1831,7398000
58,Dar es Salaam,Tanzania,2.14,5.32,1.13,92.87,44.53,41.33,311.55,333.22,264.32,"Dar es Salaam,Tanzania",-6.8,39.2833,7461000
59,Cangzhou,China,2.14,17.08,1.18,38.07,8.26,11.86,423.51,284.71,640.6,"Cangzhou,China",38.3037,116.8452,7544300
60,Shenyang,China,2.85,11.39,1.19,59.83,15.66,37.96,445.1,284.71,836.83,"Shenyang,China",41.8039,123.4258,7208000
61,Santiago,Chile,9.05,45.27,1.34,138.18,23.72,34.63,392.55,456.08,638.03,"Santiago,Chile",-33.45,-70.6667,7026000
62,Zhanjiang,China,2.35,0,1.3,35.59,9.25,0,284.71,256.24,569.42,"Zhanjiang,China",21.1967,110.4031,7332000
63,Nantong,China,3.13,31.6,1.18,48.9,6.69,113.88,135.28,631.11,1583.41,"Nantong,China",31.9829,120.8873,7283622
64,Riyadh,Saudi Arabia,6.65,31.92,0.61,92.83,72.34,96.34,405.61,752.98,2215.89,"Riyadh,Saudi Arabia",24.65,46.71,6889000
65,Nanning,China,2.35,0,1.3,39.99,9.49,32.03,284.71,358.17,818.54,"Nanning,China",22.8192,108.315,7254100
66,Yancheng,China,4.27,0,0,92.53,14.24,0,0,0,0,"Yancheng,China",33.3936,120.1339,7260240
67,Hangzhou,China,4.27,15.66,1.18,38.07,8.26,22.37,423.51,523.15,1079.52,"Hangzhou,China",30.25,120.1675,6713000
68,Miami,United States,20,111,1.12,156.11,62.69,48.32,1000,2604.55,4195.86,"Miami,United States",25.7839,-80.2102,6445545
69,Miami,United States,20,111,1.12,156.11,62.69,48.32,1000,2604.55,4195.86,"Miami,United States",36.8877,-94.8718,15571
70,Yantai,China,2.85,0,1.16,45.79,14.24,0,0,0,0,"Yantai,China",37.3997,121.2664,6968202
71,Luoyang,China,2.14,42.71,1.21,37.01,11.39,21.35,284.71,156.59,640.6,"Luoyang,China",34.6587,112.4245,6888500
72,Kunming,China,2.49,42.71,1.18,47.45,12.46,23.73,260.98,212.96,949.44,"Kunming,China",25.0433,102.7061,6850000
73,Baghdad,Iraq,4.72,25.2,0.35,123.31,58.46,34.73,142.33,432.77,520.92,"Baghdad,Iraq",33.35,44.4167,6107000
74,Quanzhou,China,3.91,0,1.01,34.2,28.47,14.24,166.08,0,1366.61,"Quanzhou,China",24.9139,118.5858,6480000
75,Madrid,Spain,12.64,57.48,2.01,166.08,38.1,43.57,514.36,1056.14,2089.54,"Madrid,Spain",40.4167,-3.7167,6006000
76,Khartoum,Sudan,5,20,1.13,41.59,76.5,27.75,72.18,520,148.57,"Khartoum,Sudan",15.6031,32.5265,6017000
77,Qingdao,China,2.99,23.49,1.16,34.17,11.25,20.17,222.07,306.31,977.5,"Qingdao,China",36.1167,120.4,5775000
78,Wuxi,China,3.7,8.07,1.18,32.39,8.86,14.83,204.04,619.24,1020.68,"Wuxi,China",31.5667,120.2833,6372624
80,Maoming,China,2.14,0,1.16,31.79,6.41,0,1850.61,142.35,0,"Maoming,China",21.6618,110.9178,6313200
81,Nanchong,China,2.85,8.67,1.19,45.92,7.12,56.94,355.89,0,0,"Nanchong,China",30.7991,106.0784,6278614
82,Dallas,United States,20,96,1.14,170.42,69.3,42.18,975,1799.71,5459.79,"Dallas,United States",32.7936,-96.7662,5743938
83,Dallas,United States,20,96,1.14,170.42,69.3,42.18,975,1799.71,5459.79,"Dallas,United States",44.9222,-123.3131,17859
84,Dallas,United States,20,96,1.14,170.42,69.3,42.18,975,1799.71,5459.79,"Dallas,United States",33.9153,-84.8416,13981
85,Dallas,United States,20,96,1.14,170.42,69.3,42.18,975,1799.71,5459.79,"Dallas,United States",41.3604,-75.9662,9208
86,Giza,Egypt,4.48,12.21,0.38,41.97,14.19,23.4,91.16,118.53,171.51,"Giza,Egypt",29.987,31.2118,5598402
87,Yulin,China,2.35,0,1.3,39.99,9.49,0,284.71,0,0,"Yulin,China",22.6293,110.1507,5849700
88,Changde,China,2.85,0,1.19,84.52,19.15,17.08,185.06,0,498.24,"Changde,China",29.0397,111.6839,5827200
89,Philadelphia,United States,19,96,1.2,166.22,67.55,49.06,1225,1886.56,4897.71,"Philadelphia,United States",40.0077,-75.1339,5649300
90,Philadelphia,United States,19,96,1.2,166.22,67.55,49.06,1225,1886.56,4897.71,"Philadelphia,United States",32.7761,-89.1221,7345
92,Nairobi,Kenya,4.28,32.61,1.18,28.18,52.18,47.67,164.71,414.88,455.52,"Nairobi,Kenya",-1.2864,36.8172,5545000
93,Guadalajara,Mexico,7.74,18.05,1.17,43.29,28.69,30.73,202.59,531.16,764.19,"Guadalajara,Mexico",20.6767,-103.3475,5437000
94,Xiangyang,China,2.85,0,0,71.18,9.96,23.73,0,0,0,"Xiangyang,China",32.0654,112.1531,5680000
95,Xiangyang,China,2.85,0,0,71.18,9.96,23.73,0,0,0,"Xiangyang,China",34.2999,108.4816,541554
96,Houston,United States,16.5,40,1.03,173.45,73.91,43.42,1273.68,1590.76,5063.25,"Houston,United States",29.7863,-95.3889,5464251
97,Atlanta,United States,15,95,1.01,213.22,73.7,40.18,1478,1883.81,4878.17,"Atlanta,United States",33.7627,-84.4224,5449398
98,Atlanta,United States,15,95,1.01,213.22,73.7,40.18,1478,1883.81,4878.17,"Atlanta,United States",33.1136,-94.1672,5526
99,Nanchang,China,2.85,12.38,1.17,53.86,19.15,78.88,427.06,163.71,598.32,"Nanchang,China",28.6842,115.8872,5545500
100,Dezhou,China,2.99,0,1.16,34.17,11.25,0,222.07,0,0,"Dezhou,China",37.4513,116.3105,5568235
101,Suzhou,China,4.98,42.71,1.18,64.83,12.61,49.17,1583.7,775.04,925.31,"Suzhou,China",33.6333,116.9683,5352924
102,Suzhou,China,4.98,42.71,1.18,64.83,12.61,49.17,1583.7,775.04,925.31,"Suzhou,China",31.304,120.6164,5103000
103,Toronto,Canada,18.53,115.62,1.44,127.96,54.91,46.66,1159.76,1728.5,3249.79,"Toronto,Canada",43.7417,-79.3733,5429524
104,Singapore,Singapore,11.09,94.65,2.35,145.68,35.02,107.93,1116.5,2734.54,4619.45,"Singapore,Singapore",1.3,103.8,5271000
106,Shantou,China,0,21.35,0,34.2,11.39,34.8,166.08,0,1260.6,"Shantou,China",23.3735,116.6941,5319028
107,Washington,United States,19.5,102,1.24,159.71,56.06,86.88,2260.91,2307.11,5907.32,"Washington,United States",38.9047,-77.0163,5379184
108,Washington,United States,19.5,102,1.24,159.71,56.06,86.88,2260.91,2307.11,5907.32,"Washington,United States",39.747,-75.0724,47833
109,Washington,United States,19.5,102,1.24,159.71,56.06,86.88,2260.91,2307.11,5907.32,"Washington,United States",37.1304,-113.4877,29174
110,Washington,United States,19.5,102,1.24,159.71,56.06,86.88,2260.91,2307.11,5907.32,"Washington,United States",40.7877,-74.7918,18429
111,Washington,United States,19.5,102,1.24,159.71,56.06,86.88,2260.91,2307.11,5907.32,"Washington,United States",40.7049,-89.4346,16516
112,Washington,United States,19.5,102,1.24,159.71,56.06,86.88,2260.91,2307.11,5907.32,"Washington,United States",35.5587,-77.0545,16014
113,Washington,United States,19.5,102,1.24,159.71,56.06,86.88,2260.91,2307.11,5907.32,"Washington,United States",40.7587,-74.9825,15357
114,Washington,United States,19.5,102,1.24,159.71,56.06,86.88,2260.91,2307.11,5907.32,"Washington,United States",39.7494,-77.558,14627
115,Washington,United States,19.5,102,1.24,159.71,56.06,86.88,2260.91,2307.11,5907.32,"Washington,United States",38.5514,-91.0151,14417
116,Washington,United States,19.5,102,1.24,159.71,56.06,86.88,2260.91,2307.11,5907.32,"Washington,United States",38.6587,-87.1591,13565
117,Washington,United States,19.5,102,1.24,159.71,56.06,86.88,2260.91,2307.11,5907.32,"Washington,United States",40.174,-80.2466,13433
118,Washington,United States,19.5,102,1.24,159.71,56.06,86.88,2260.91,2307.11,5907.32,"Washington,United States",40.9884,-74.0637,9237
119,Washington,United States,19.5,102,1.24,159.71,56.06,86.88,2260.91,2307.11,5907.32,"Washington,United States",41.2982,-91.6928,7230
120,Washington,United States,19.5,102,1.24,159.71,56.06,86.88,2260.91,2307.11,5907.32,"Washington,United States",40.5093,-79.6011,7109
121,Washington,United States,19.5,102,1.24,159.71,56.06,86.88,2260.91,2307.11,5907.32,"Washington,United States",40.7389,-75.6392,6748
122,Washington,United States,19.5,102,1.24,159.71,56.06,86.88,2260.91,2307.11,5907.32,"Washington,United States",40.8467,-75.1972,5232
123,Changzhou,China,2.85,0,1.16,75.63,14.24,26.1,249.12,327.42,996.48,"Changzhou,China",31.8122,119.9692,5278121
124,Fuzhou,China,2.99,42.71,1.2,49.32,9.15,28.47,284.71,370.12,781.77,"Fuzhou,China",26.0769,119.2917,5245000
125,Fuzhou,China,2.99,42.71,1.2,49.32,9.15,28.47,284.71,370.12,781.77,"Fuzhou,China",27.9814,116.3577,4047200
126,Alexandria,Egypt,4.07,9.77,0.37,21.56,12.1,20.93,70.05,142.44,163.76,"Alexandria,Egypt",31.2,29.9167,4870000
127,Belo Horizonte,Brazil,4.22,32.76,1.31,70.83,19.46,19.75,270.36,269.83,319.37,"Belo Horizonte,Brazil",-19.9281,-43.9419,5159000
128,Taizhou,China,2.85,0,0,42.71,14.24,0,0,0,0,"Taizhou,China",32.4831,119.9,5031000
129,Taizhou,China,2.85,0,0,42.71,14.24,0,0,0,0,"Taizhou,China",28.6583,121.4221,1030200
130,Pingdingshan,China,2.14,0,1.21,37.01,11.39,0,284.71,0,0,"Pingdingshan,China",33.735,113.2999,4904701
131,Guilin,China,4.27,28.47,0,35.59,17.08,42.71,0,143.07,465.03,"Guilin,China",25.2667,110.2833,5085500
132,Boston,United States,20,90,1.23,185,60.95,71.27,2050,2715.62,5342.19,"Boston,United States",42.3188,-71.0846,4688346
133,Boston,United States,20,90,1.23,185,60.95,71.27,2050,2715.62,5342.19,"Boston,United States",42.6528,-78.7555,8042
134,Sydney,Australia,13.59,147.73,1.38,133.25,50.66,57.5,1671.95,1720.76,4683.94,"Sydney,Australia",-33.865,151.2094,4840600
135,Jiujiang,China,2.85,0,1.17,72.6,11.39,0,249.12,0,0,"Jiujiang,China",29.7048,116.0021,4896800
136,Bozhou,China,1.14,0,1.17,89.91,7.12,0,249.12,213.53,711.77,"Bozhou,China",33.8626,115.7742,4850657
137,Barcelona,Spain,14.75,42.15,2.05,170.85,40.15,45.78,518.09,1083.72,1978.23,"Barcelona,Spain",41.3825,2.1769,4735000
138,Huizhou,China,2.14,0,1.16,71.18,14.95,35.59,166.08,0,0,"Huizhou,China",23.1115,114.4152,4830000
139,Melbourne,Australia,15.63,108.05,1.42,148.65,51.57,46.14,1688.04,1284.94,4052.92,"Melbourne,Australia",-37.8136,144.9631,4529500
140,Chenzhou,China,2.99,0,1.16,49.32,9.15,0,284.71,213.53,996.48,"Chenzhou,China",25.7989,113.0267,4744500
141,Dalian,China,3.56,25.62,1.23,37.98,9.89,110.32,516.04,409.4,729.89,"Dalian,China",38.9,121.6,4480000
142,Anqing,China,2.85,0,1.4,36.92,7.12,0,0,0,0,"Anqing,China",30.5,117.0333,4723000
143,Jiangmen,China,3.56,9.25,1.14,21.35,14.95,17.78,195.74,209.97,960.9,"Jiangmen,China",22.5833,113.0833,4630300
144,Harbin,China,2.85,19.22,1.16,56.94,11.86,21.35,189.81,284.71,661.75,"Harbin,China",45.75,126.6333,4583000
145,Johannesburg,South Africa,8.55,62.48,1.43,106.1,49.89,32.4,223.02,396.6,1502.75,"Johannesburg,South Africa",-26.2044,28.0416,4434827
146,Zibo,China,4.27,0,1.2,21.35,8.54,11.39,565.86,284.71,432.43,"Zibo,China",36.7831,118.0497,4530597
147,Casablanca,Morocco,3.45,21.72,1.43,37.98,36.34,20.64,186.9,426.32,470.72,"Casablanca,Morocco",33.5992,-7.62,4370000
148,Kabul,Afghanistan,1.69,15.25,0.89,31.99,715.63,13.56,25.99,108.92,195.86,"Kabul,Afghanistan",34.5328,69.1658,4273156
149,Phoenix,United States,18.5,64,1.31,209.47,78.04,34.37,900,1702.48,5090.45,"Phoenix,United States",33.5722,-112.0891,4219697
150,Xiamen,China,2.99,8.54,1.19,49.32,9.15,35.59,284.71,460.28,891.28,"Xiamen,China",24.4797,118.0819,4110000
151,Amman,Jordan,5.99,49.34,1.36,75.22,36.88,59.1,231.23,353.18,635.66,"Amman,Jordan",31.95,35.9333,4007526
153,Kano,Nigeria,2.25,0,0.41,13.51,19.14,27.02,39.4,337.71,0,"Kano,Nigeria",12,8.5167,3848885
154,Luzhou,China,3.13,0,1.18,56.41,6.69,0,135.28,0,0,"Luzhou,China",28.8918,105.4409,4218427
155,Luzhou,China,3.13,0,1.18,56.41,6.69,0,135.28,0,0,"Luzhou,China",23.3687,114.5196,15890
156,Taiyuan,China,1.71,7.12,1.16,43.6,9.11,35.59,332.16,142.35,569.42,"Taiyuan,China",37.8733,112.5425,4201592
157,Zhaoqing,China,2.85,0,1.4,56.94,7.12,42.71,427.06,185.06,0,"Zhaoqing,China",23.05,112.4667,4151700
158,Yokohama,Japan,6.33,74.45,1.23,181.61,35.77,65.15,379.7,900.24,2707.07,"Yokohama,Japan",35.4333,139.6333,3757630
159,Liuzhou,China,1.71,7.12,0,49.82,10.87,42.71,284.71,0,593.15,"Liuzhou,China",24.3264,109.4281,4041700
160,Seattle,United States,20,100,1.4,221.73,71,57.49,1489.17,2291.82,6292.34,"Seattle,United States",47.6211,-122.3244,3789215
161,Jeddah,Saudi Arabia,6.65,15.96,0.61,104.88,70.14,90.14,306.24,499.97,1689.77,"Jeddah,Saudi Arabia",21.5428,39.1728,3976000
162,Berlin,Germany,12.64,89.57,2.16,308.3,40.24,40.57,191.06,1321.9,3158.05,"Berlin,Germany",52.5167,13.3833,3664088
163,Baojishi,China,3.77,12.81,1.15,46.76,13.95,16.01,199.3,156.59,555.11,"Baojishi,China",34.3609,107.1751,3738700
164,Zaozhuang,China,2.85,0,1.17,67.77,8.12,0,711.77,0,0,"Zaozhuang,China",34.8667,117.55,3729140
165,Algiers,Algeria,2.53,10.85,0.31,48.36,27.77,20.15,102.33,234.56,285.56,"Algiers,Algeria",36.7764,3.0586,3415811
166,Busan,South Korea,6.15,46.09,1.34,141.08,22.28,52.68,409.72,414.87,1910.04,"Busan,South Korea",35.1,129.0403,3453198
167,Anshan,China,2.14,0,1.23,37.97,9.89,0,516.04,0,0,"Anshan,China",41.1066,122.9895,3645884
168,Anshan,China,2.14,0,1.23,37.97,9.89,0,516.04,0,0,"Anshan,China",39.7144,118.9964,45804
169,Detroit,United States,15.63,60,1.28,280.06,72,40.33,450,1266.67,3926.67,"Detroit,United States",42.3834,-83.1024,3506126
170,Jiaozuo,China,2.14,0,1.16,52.99,9.68,0,284.71,0,0,"Jiaozuo,China",35.229,113.2304,3590700
171,Lucknow,India,3.07,12.28,1.25,47.83,8.66,19.96,51.34,122.82,569.74,"Lucknow,India",26.847,80.947,3382000
172,Faisalabad,Pakistan,1.23,8.94,0.81,54.03,16.76,13.97,14.9,83.45,188.39,"Faisalabad,Pakistan",31.418,73.079,3203846
173,Zhongshan,China,2.85,21.35,1.16,71.18,14.95,28.33,398.59,256.24,774.65,"Zhongshan,China",22.5333,113.35,3260000
174,Zhongshan,China,2.85,21.35,1.16,71.18,14.95,28.33,398.59,256.24,774.65,"Zhongshan,China",34.943,105.8771,27147
175,Jaipur,India,2.46,7.37,1.36,43.91,9.12,17.6,44.96,145.74,447.36,"Jaipur,India",26.9167,75.8667,3073350
176,Jaipur,India,2.46,7.37,1.36,43.91,9.12,17.6,44.96,145.74,447.36,"Jaipur,India",23.4313,86.1493,10259
177,San Diego,United States,20,75,1.61,201.77,74.15,48.42,1321.43,2576.61,5924.47,"San Diego,United States",32.8312,-117.1225,3220118
178,Mashhad,Iran,2.54,10,0.55,32.61,19.16,20.36,198.1,505.05,304.12,"Mashhad,Iran",36.3069,59.6042,3001184
179,Zhenjiang,China,2.85,7.12,1.17,89.91,5.69,0,249.12,0,0,"Zhenjiang,China",32.2109,119.4551,3113384
180,Minneapolis,United States,20,85,1.08,143.33,59.87,69.38,1200,1514.82,4963.79,"Minneapolis,United States",44.9635,-93.2678,2977172
181,Addis Ababa,Ethiopia,7.66,12,0.75,168.33,202.38,57.25,78.15,466.89,194.78,"Addis Ababa,Ethiopia",9.0272,38.7369,3041002
182,Kuwait City,Kuwait,6.52,40.72,0.35,43.98,29.68,124.6,406.26,929.33,1940.76,"Kuwait City,Kuwait",29.375,47.98,2989000
183,Incheon,South Korea,5.38,40.33,1.35,131.06,21.25,33.29,230.47,422.53,2047.33,"Incheon,South Korea",37.4639,126.6486,2913024
184,Quezon City,Philippines,3.59,9.87,1.29,201.62,39.24,40.78,134.57,320.29,316.53,"Quezon City,Philippines",14.6333,121.0333,2960048
185,Sanaa,Yemen,5.99,54.94,1.79,47.04,36.93,85.55,46.27,204.77,599.5,"Sanaa,Yemen",15.35,44.2,2957000
186,Surabaya,Indonesia,1.3,9.72,0.79,73.31,28.38,33.88,124.08,228.35,331.5,"Surabaya,Indonesia",-7.2458,112.7378,2885555
187,Bandung,Indonesia,1.3,14.09,0.8,34.32,36.58,23.24,71.84,206.34,291.36,"Bandung,Indonesia",-6.95,107.5667,2875673
188,Tampa,United States,21,66,1.16,168.49,63.19,29.5,943.75,1995.95,5289.14,"Tampa,United States",27.9942,-82.4451,2908063
189,Salvador,Brazil,4.79,24.91,1.29,76.54,16.92,19.88,268.23,354.45,227.1,"Salvador,Brazil",-12.9708,-38.5108,2886698
190,Rome,Italy,16.33,36.88,2.07,197.83,29.26,52.72,485.53,1070.3,1579.61,"Rome,Italy",41.8931,12.4828,2872800
191,Guatemala City,Guatemala,5.79,10.51,1.08,88.2,46.81,51.65,205.59,573.77,436.56,"Guatemala City,Guatemala",14.6099,-90.5252,2934841
192,Denver,United States,18,114,1.15,158.16,73.23,73.18,1469.44,1893,5565.78,"Denver,United States",39.7621,-104.8759,2876625
193,Kyiv,Ukraine,6.8,9.52,1.44,93.68,5.11,24.02,310.23,472.73,516.89,"Kyiv,Ukraine",50.45,30.5236,2963199
194,Putian,China,3.2,17.08,1.19,53.18,11.39,0,427.06,0,427.06,"Putian,China",25.4394,119.0103,2900000
195,Taichung,Taiwan,3.6,40.98,1,58.6,24.86,32.32,450.04,376.4,1136.2,"Taichung,Taiwan",24.15,120.6667,2803894
197,Guayaquil,Ecuador,2.65,16.2,0.74,86.06,40.75,36.62,280,362.11,607.5,"Guayaquil,Ecuador",-2.19,-79.8875,2723665
198,Kaohsiung,Taiwan,3.27,32.73,0.99,91.44,21.26,31.86,280.25,345.15,1247.19,"Kaohsiung,Taiwan",22.6167,120.3,2773533
199,La Paz,Bolivia,2.89,31.09,0.56,42.16,47.42,42.97,206.92,275.21,499.75,"La Paz,Bolivia",-16.4942,-68.1475,2867504
200,Hohhot,China,3.56,0,1.11,78.3,42.71,0,0,0,526.71,"Hohhot,China",40.8151,111.6629,2866615
202,Weihai,China,7.12,0,0,28.47,8.54,0,0,0,0,"Weihai,China",37.5,122.1,2804771
203,Rizhao,China,2.85,0,1.17,67.77,8.12,0,711.77,0,0,"Rizhao,China",35.4164,119.4331,2801013
204,Taipei,Taiwan,5.89,41.89,1.02,82.34,25.62,40.07,698.49,680.15,1876.87,"Taipei,Taiwan",25.0478,121.5319,2684567
205,Baotou,China,2.14,0,0,28.47,5.69,0,0,256.24,0,"Baotou,China",40.6562,109.8345,2650364
206,Antananarivo,Madagascar,4.12,2.61,1.03,44.9,58.79,54.41,202.37,431.46,142.04,"Antananarivo,Madagascar",-18.9386,47.5214,2610000
207,Ankang,China,2.85,0,1.16,48.49,13.52,0,427.06,0,0,"Ankang,China",32.6877,109.0235,2629906
208,Brooklyn,United States,19,127,1.23,132.48,64.21,59,2375,2806.77,4950.19,"Brooklyn,United States",40.6501,-73.9496,2559903
209,Brooklyn,United States,19,127,1.23,132.48,64.21,59,2375,2806.77,4950.19,"Brooklyn,United States",41.4349,-81.7498,10646
210,Brooklyn,United States,19,127,1.23,132.48,64.21,59,2375,2806.77,4950.19,"Brooklyn,United States",41.787,-71.9543,8238
211,Santo Domingo,Dominican Republic,9.14,91.41,1.27,86.9,46.85,39.97,304.69,907.76,459.84,"Santo Domingo,Dominican Republic",18.4764,-69.8933,2581827
212,Ibadan,Nigeria,1.35,33.77,0.38,23.64,33.77,25.89,65.67,517.82,206.38,"Ibadan,Nigeria",7.3964,3.9167,2550593
213,Yangjiang,China,4.27,0,1.18,38.07,8.26,28.47,423.51,0,996.48,"Yangjiang,China",21.8556,111.9627,2555600
214,Dubai,United Arab Emirates,12.25,95.29,1.1,192.01,97.02,74.01,757.06,1793.25,4322.14,"Dubai,United Arab Emirates",25.2697,55.3094,2502715
215,Tashkent,Uzbekistan,5,14.09,0.91,42.75,18.86,42.32,217.38,456.99,333.39,"Tashkent,Uzbekistan",41.3,69.2667,2497900
216,Cali,Colombia,2.2,25.18,0.5,59.83,19.36,15.59,209.8,208.3,325.19,"Cali,Colombia",3.44,-76.5197,2471474
217,Douala,Cameroon,3.61,4.02,1.03,79.17,45.18,30.98,315.26,182.95,188.18,"Douala,Cameroon",4.05,9.7,2446945
218,Daegu,South Korea,5.38,26.89,1.32,131.06,20.49,46.09,320.1,355.31,1868.72,"Daegu,South Korea",35.8667,128.6,2461002
219,Fortaleza,Brazil,4.98,17.72,1.27,80.59,17.47,19.04,303.36,194.79,239.49,"Fortaleza,Brazil",-3.7275,-38.5275,2452185
220,Ouagadougou,Burkina Faso,0.8,14.46,1.05,96.39,35.82,28.11,69.61,401.61,426.37,"Ouagadougou,Burkina Faso",12.3686,-1.5275,2453496
221,Brisbane,Australia,13.59,134.56,1.38,143.1,51.29,41.84,1380.4,1332.28,4082.97,"Brisbane,Australia",-27.4678,153.0281,2360241
222,Accra,Ghana,2.5,18.21,0.65,26.75,31.37,26.61,51.34,589.26,183.6,"Accra,Ghana",5.6037,-0.187,2291352
223,Tangerang,Indonesia,1.94,7.78,0.81,91.96,27.19,28.09,104.12,315.99,404.96,"Tangerang,Indonesia",-6.1783,106.6319,2237006
224,Fukuoka,Japan,7.3,70.73,1.22,198.35,36.03,57.95,491.38,502.55,1646.81,"Fukuoka,Japan",33.6,130.4167,2280000
225,Vancouver,Canada,18.16,95.24,1.58,91.93,62.95,46.24,1059.84,1799.96,3474.89,"Vancouver,Canada",49.25,-123.1,2264823
226,Bekasi,Indonesia,1.94,3.89,0.8,54.84,31.57,29.17,73.46,286.28,452.11,"Bekasi,Indonesia",-6.2333,107,2381053
227,Omdurman,Sudan,5,0,1.13,41.59,76.5,0,72.18,128.87,0,"Omdurman,Sudan",15.6167,32.48,2395159
228,Depok,Indonesia,1.46,12.96,0.77,56.93,31.57,23.77,87.51,108.03,421.32,"Depok,Indonesia",-6.394,106.8225,2330333
229,Queens,United States,15,127,1.19,88.24,61.25,43.33,2766.67,2027.6,5000,"Queens,United States",40.7498,-73.7976,2230722
230,Baku,Azerbaijan,5.88,11.76,0.64,50.18,14.73,32.43,205.19,321.86,405.72,"Baku,Azerbaijan",40.3667,49.8352,2181800
231,Havana,Cuba,10,20,1.14,37.14,165,16.67,70,532.86,35.75,"Havana,Cuba",23.1367,-82.3589,2141652
232,Medan,Indonesia,1.94,6.48,0.8,50.23,31.59,23.77,69.14,106.3,302.49,"Medan,Indonesia",3.6667,98.6667,2109330
233,Ningbo,China,4.63,14.24,1.18,32.39,8.86,83.04,557.56,419.95,921.23,"Ningbo,China",29.875,121.5492,2125500
234,Xining,China,4.63,0,1.16,42.32,38.44,21.35,341.65,355.89,648.9,"Xining,China",36.6239,101.7787,2208708
235,Harare,Zimbabwe,7,30,1.5,60.67,118.75,35,288.89,296.43,272.22,"Harare,Zimbabwe",-17.8292,31.0522,2150000
236,Rawalpindi,Pakistan,1.23,7.38,0.7,35.16,16.96,12.37,30.66,94.12,169.23,"Rawalpindi,Pakistan",33.6007,73.0679,2098231
237,Phnom Penh,Cambodia,3.85,10.62,1.18,123,35.25,75.81,261.6,546.76,303.77,"Phnom Penh,Cambodia",11.5696,104.921,2129371
238,Mogadishu,Somalia,2,35,0.91,68.33,26,23.75,78.75,200,406.67,"Mogadishu,Somalia",2.0408,45.3425,2120000
239,Haiphong,Vietnam,1.22,0,0.86,41.65,9.66,24.48,241.37,666.33,326.36,"Haiphong,Vietnam",20.8,106.6667,2103500
241,Baltimore,United States,14.5,74,1.06,148.18,78.91,72,1200,1559.96,5188.03,"Baltimore,United States",39.3051,-76.6144,2106068
242,Riverside,United States,17,40,1.51,246.39,82.22,40,1500,1856.5,3266.67,"Riverside,United States",33.9381,-117.3948,2107852
243,Riverside,United States,17,40,1.51,246.39,82.22,40,1500,1856.5,3266.67,"Riverside,United States",40.0358,-74.9564,7857
244,Riverside,United States,17,40,1.51,246.39,82.22,40,1500,1856.5,3266.67,"Riverside,United States",39.7836,-84.1219,25133
245,Riverside,United States,17,40,1.51,246.39,82.22,40,1500,1856.5,3266.67,"Riverside,United States",41.0319,-73.5827,8604
246,Riverside,United States,17,40,1.51,246.39,82.22,40,1500,1856.5,3266.67,"Riverside,United States",41.831,-87.8169,8563
247,Riverside,United States,17,40,1.51,246.39,82.22,40,1500,1856.5,3266.67,"Riverside,United States",39.4777,-76.2385,6038
248,Las Vegas,United States,17.25,60,1.4,187.27,90.3,25.97,1036,1452.53,3817.48,"Las Vegas,United States",36.2333,-115.2654,2104198
249,Las Vegas,United States,17.25,60,1.4,187.27,90.3,25.97,1036,1452.53,3817.48,"Las Vegas,United States",35.6011,-105.2206,14662
250,Vadodara,India,2.46,6.14,1.2,32.32,8.21,20.42,50.83,100.56,354.12,"Vadodara,India",22.3,73.2,2065771
251,Portland,United States,16.75,100,1.4,206.66,72.97,62.4,1487.5,1760.26,4599.72,"Portland,United States",45.5372,-122.65,2074775
252,Portland,United States,16.75,100,1.4,206.66,72.97,62.4,1487.5,1760.26,4599.72,"Portland,United States",43.6773,-70.2715,203969
253,Portland,United States,16.75,100,1.4,206.66,72.97,62.4,1487.5,1760.26,4599.72,"Portland,United States",27.8911,-97.3284,17268
254,Portland,United States,16.75,100,1.4,206.66,72.97,62.4,1487.5,1760.26,4599.72,"Portland,United States",36.5883,-86.5194,13030
255,Portland,United States,16.75,100,1.4,206.66,72.97,62.4,1487.5,1760.26,4599.72,"Portland,United States",41.5988,-72.589,9322
256,Portland,United States,16.75,100,1.4,206.66,72.97,62.4,1487.5,1760.26,4599.72,"Portland,United States",40.4375,-84.9833,6002
257,Portland,United States,16.75,100,1.4,206.66,72.97,62.4,1487.5,1760.26,4599.72,"Portland,United States",42.8696,-84.899,5104
258,Kumasi,Ghana,1.79,3.11,0.51,14.29,36.66,11.9,41.67,130.95,440.44,"Kumasi,Ghana",6.6833,-1.6167,2069350
259,Gujranwala,Pakistan,0.98,3.35,0.65,35.38,15.65,7.6,15.65,68.17,138.58,"Gujranwala,Pakistan",32.15,74.1833,2027001
260,Pingliang,China,7.12,0,1.14,49.82,8.54,0,284.71,284.71,0,"Pingliang,China",35.5412,106.6819,2068033
261,Quito,Ecuador,3.75,20.87,0.76,41.9,37.62,41.46,274.67,445.83,462.19,"Quito,Ecuador",-0.22,-78.5125,2011388
262,Perth,Australia,16.99,91.55,1.32,142.85,53.26,43.53,1330.84,1229.79,4255.91,"Perth,Australia",-31.9522,115.8589,2039200
263,Peshawar,Pakistan,1.34,7.82,0.65,49.02,21.61,14.16,15.09,52.15,143.69,"Peshawar,Pakistan",34,71.5,1970042
264,Minsk,Belarus,9.9,19.36,0.92,59.37,13.96,35.15,457.82,401.84,549.57,"Minsk,Belarus",53.9022,27.5618,2009786
265,Caracas,Venezuela,10,30,0.5,12.37,49.38,45.64,75,383.33,185.12,"Caracas,Venezuela",10.5,-66.9333,1943901
266,Sapporo,Japan,8.19,148.9,1.25,249.17,55.84,46.66,296.32,335.03,1927.62,"Sapporo,Japan",43.0621,141.3544,1961690
267,Fushun,China,1.14,11.39,0,32.47,9.25,21.35,398.59,142.35,0,"Fushun,China",41.8708,123.8917,2024000
268,Indore,India,3.07,6.14,1.32,27.98,9.49,13.31,58.85,128.28,526.07,"Indore,India",22.7206,75.8472,1994397
269,Tijuana,Mexico,10.31,46.41,1.16,111.69,24.72,35.36,128.92,653.62,807.91,"Tijuana,Mexico",32.525,-117.0333,1922523
270,Bamako,Mali,4.72,0,1.22,267.24,29.27,63.28,0,1000,109.58,"Bamako,Mali",12.6458,-7.9922,2009109
271,Yinchuan,China,0,0,0,25.62,5.55,23.73,213.53,0,0,"Yinchuan,China",38.4795,106.2254,1993088
272,Almaty,Kazakhstan,6.38,15.09,0.44,47.17,11.76,43.84,217.47,566.76,504.8,"Almaty,Kazakhstan",43.25,76.9,1916822
273,Vienna,Austria,15.81,34.77,2.03,216.55,34.15,29.72,277.74,997.3,2735.42,"Vienna,Austria",48.2083,16.3725,1911191
274,Sacramento,United States,18,100,1.57,261.38,72.44,58.75,1300,1840,4703.11,"Sacramento,United States",38.5667,-121.4683,1898019
275,Aleppo,Syria,4,0,1,20,49.33,24.26,49.84,132.34,72.8,"Aleppo,Syria",36.2,37.15,1916781
276,Blantyre,Malawi,3.41,0,1.03,38.95,111.98,9.74,175.27,162.28,535.54,"Blantyre,Malawi",-15.7861,35.0058,1895973
277,Tainan,Taiwan,3.27,21.03,0.96,82.34,25.62,34.56,698.49,286.39,1339.77,"Tainan,Taiwan",22.9833,120.1833,1883831
278,Zhuhai,China,2.85,8.54,1.2,42.81,17.08,16.61,308.44,521.97,1387.96,"Zhuhai,China",22.2769,113.5678,1891100
279,Curitiba,Brazil,4.79,44.07,1.27,64.4,22.55,22.02,275.89,294.23,492.89,"Curitiba,Brazil",-25.4297,-49.2719,1879355
280,Multan,Pakistan,1.34,4.47,0.69,56.04,12.85,12.26,29.03,54.05,125.87,"Multan,Pakistan",30.1978,71.4711,1871843
281,Bucharest,Romania,10.7,17.13,1.75,118.89,8.37,45.69,477.49,470.22,948.86,"Bucharest,Romania",44.4,26.0833,1883425
282,Hamburg,Germany,14.75,96.94,2.24,287.14,37.75,55.36,611.17,1111.22,3164.03,"Hamburg,Germany",53.55,10,1852478
283,Orlando,United States,20,50,1.15,165.59,74.52,40.07,975,1756.14,5192.09,"Orlando,United States",28.4772,-81.3369,1822394
284,Ecatepec,Mexico,2.71,21.14,1.15,29.22,25.78,50.71,154.71,446.93,429.74,"Ecatepec,Mexico",19.6097,-99.06,1857188
285,Manaus,Brazil,3.63,0,1.31,90.69,20.07,16.72,143.69,335.29,565.2,"Manaus,Brazil",-3.1,-60.0167,1802014
286,Davao,Philippines,3.59,0,1.34,97,39.24,48.44,0,227.27,280.66,"Davao,Philippines",7.0667,125.6,1776949
287,Meru,Kenya,3.26,30.57,1,16.31,23.64,36.69,40.77,93.76,346.51,"Meru,Kenya",0.05,37.65,1833000
288,Damascus,Syria,4,17,1.16,18.48,50.67,14.47,133.06,282.72,50.24,"Damascus,Syria",33.5131,36.2919,1754000
289,Brussels,Belgium,15.81,52.69,1.98,207.8,51.82,32.5,888.16,984.93,2798,"Brussels,Belgium",50.8353,4.3314,1743000
290,Warsaw,Poland,7.89,24.79,1.66,198.99,13.45,30.24,397.82,793.08,1286.21,"Warsaw,Poland",52.23,21.0111,1790658
291,Lusaka,Zambia,3,30.62,1.36,140.69,103.74,23.82,171.24,262.01,396.94,"Lusaka,Zambia",-15.4167,28.2833,1742979
292,Haikou,China,2.28,8.54,1.16,31.79,6.41,68.33,1850.61,284.71,1174,"Haikou,China",20.02,110.32,1776141
293,Cleveland,United States,12,95,1.13,191.73,69.44,36.9,788.33,1505.56,4435.33,"Cleveland,United States",41.4767,-81.6804,1710093
294,Cleveland,United States,12,95,1.13,191.73,69.44,36.9,788.33,1505.56,4435.33,"Cleveland,United States",35.1817,-84.8707,73596
295,Cleveland,United States,12,95,1.13,191.73,69.44,36.9,788.33,1505.56,4435.33,"Cleveland,United States",33.744,-90.7285,14114
296,Cleveland,United States,12,95,1.13,191.73,69.44,36.9,788.33,1505.56,4435.33,"Cleveland,United States",30.3374,-95.0931,10690
297,Cleveland,United States,12,95,1.13,191.73,69.44,36.9,788.33,1505.56,4435.33,"Cleveland,United States",34.5971,-83.7621,5372
298,San Jose,United States,19,90,1.61,200.44,74.12,69.5,1987.5,2469.6,6808.52,"San Jose,United States",37.3019,-121.8486,1798103
299,Budapest,Hungary,8.23,24.43,1.55,154.04,12.82,44.23,361.49,492.44,974.48,"Budapest,Hungary",47.4983,19.0408,1723836
300,Pittsburgh,United States,15,97.5,1.24,199.46,68.05,42.38,1200,1454.92,4143.72,"Pittsburgh,United States",40.4396,-79.9762,1703266
301,Patna,India,2.46,12.28,1.3,31.01,8.51,17.5,44.52,113.61,356.17,"Patna,India",25.61,85.1414,1684222
302,Austin,United States,17,42,1.04,156.47,65.38,46.45,1098.67,2174.86,5494.29,"Austin,United States",30.3004,-97.7522,1687311
303,Austin,United States,17,42,1.04,156.47,65.38,46.45,1098.67,2174.86,5494.29,"Austin,United States",43.6718,-92.9783,25626
304,Mecca,Saudi Arabia,6.65,26.6,0.62,110.85,79.81,133.02,272.69,305.94,2634.52,"Mecca,Saudi Arabia",21.4225,39.8261,1675368
305,Recife,Brazil,4.79,38.32,1.26,77.53,19.79,20.63,319.32,281.92,444.5,"Recife,Brazil",-8.0539,-34.8808,1653461
306,Cincinnati,United States,15,77.5,1.16,128.62,57.5,27.22,1166.67,1473.33,3621.99,"Cincinnati,United States",39.1413,-84.5061,1662691
307,Kampala,Uganda,1.74,41.53,1.4,52.24,57.43,59.16,192.01,326.52,162.31,"Kampala,Uganda",0.3136,32.5811,1659600
308,Conakry,Guinea,5,15,1,55,100,25.34,755,540.38,800,"Conakry,Guinea",9.538,-13.6773,1667864
309,Caloocan City,Philippines,2.51,0,1.25,152.13,30.5,0,199.36,448.55,246.36,"Caloocan City,Philippines",14.65,120.9667,1661584
310,Mosul,Iraq,5.49,30.67,0.46,72.98,30.31,16.06,34.65,112.96,838.28,"Mosul,Iraq",36.3667,43.1167,1694000
311,Hyderabad City,Pakistan,1.23,2.68,0.71,61.09,15.65,13.75,10.73,70.03,161.67,"Hyderabad City,Pakistan",25.3792,68.3683,1732693
312,Manhattan,United States,12,30,1.1,155.19,56.25,0,553.5,800,5166.67,"Manhattan,United States",40.7834,-73.9662,1628706
313,Manhattan,United States,12,30,1.1,155.19,56.25,0,553.5,800,5166.67,"Manhattan,United States",39.1886,-96.6046,57046
314,Manhattan,United States,12,30,1.1,155.19,56.25,0,553.5,800,5166.67,"Manhattan,United States",41.4274,-87.9805,8240
315,Semarang,Indonesia,1.3,18.18,0.79,40.19,28.38,29.17,75.62,259.28,269,"Semarang,Indonesia",-6.9667,110.4167,1621384
316,Novosibirsk,Russia,9.6,39.2,0.81,107.1,9.47,40.12,345.14,457.6,654.1,"Novosibirsk,Russia",55.0333,82.9167,1602915
317,Indianapolis,United States,19,60,1.2,225.27,72.62,46.12,1216.67,1330.62,4562.61,"Indianapolis,United States",39.7771,-86.1458,1588961
318,Kansas City,United States,17.5,0,1.1,204.69,75.83,55,1200,1100,2649.6,"Kansas City,United States",39.1239,-94.5541,1636715
319,Kansas City,United States,17.5,0,1.1,204.69,75.83,55,1200,1100,2649.6,"Kansas City,United States",39.1234,-94.7443,152960
320,Puebla,Mexico,6.45,25.78,1.17,64.46,31.59,27.07,177.66,325.74,532.88,"Puebla,Mexico",19.0333,-98.1833,1576259
321,Karaj,Iran,5.5,23.75,0.48,28.99,50.67,33.38,155.28,459.59,308.57,"Karaj,Iran",35.8327,50.9915,1592492
322,Madurai,India,1.35,9.83,1.29,33.93,9.01,4.5,40.26,88.02,458.52,"Madurai,India",9.9197,78.1194,1561129
323,Jamshedpur,India,1.99,0,1.26,30.71,7.47,18.42,36.85,122.82,223.69,"Jamshedpur,India",22.8,86.1833,1558000
324,Columbus,United States,15,62,1.12,204.48,60.74,35.92,1308.33,1394.44,4403.89,"Columbus,United States",39.9862,-82.985,1562009
325,Columbus,United States,15,62,1.12,204.48,60.74,35.92,1308.33,1394.44,4403.89,"Columbus,United States",32.51,-84.8771,261445
326,Columbus,United States,15,62,1.12,204.48,60.74,35.92,1308.33,1394.44,4403.89,"Columbus,United States",39.2093,-85.9183,59897
327,Columbus,United States,15,62,1.12,204.48,60.74,35.92,1308.33,1394.44,4403.89,"Columbus,United States",33.5088,-88.4096,31084
328,Columbus,United States,15,62,1.12,204.48,60.74,35.92,1308.33,1394.44,4403.89,"Columbus,United States",41.4368,-97.3563,23468
329,Columbus,United States,15,62,1.12,204.48,60.74,35.92,1308.33,1394.44,4403.89,"Columbus,United States",43.3354,-89.03,6793
330,Charlotte,United States,15,88,1.15,149.11,68.86,36.5,975,1780.56,5101.48,"Charlotte,United States",35.208,-80.8304,1512923
331,Charlotte,United States,15,88,1.15,149.11,68.86,36.5,975,1780.56,5101.48,"Charlotte,United States",42.5662,-84.8304,12703
332,Maracaibo,Venezuela,8.5,60,0.51,15,25,25,100,225,100,"Maracaibo,Venezuela",10.6333,-71.6333,1551539
333,Aba,Nigeria,1.58,0,0.34,22.51,81.05,11.26,78.8,450.28,99.95,"Aba,Nigeria",5.1167,7.3667,1530000
334,Palembang,Indonesia,0.97,0,0.8,32.41,35.65,12.96,0,259.28,159.65,"Palembang,Indonesia",-2.9833,104.7644,1535952
335,Kawasaki,Japan,4.47,44.67,1.24,171.22,32.85,58.32,223.36,570.8,2957.78,"Kawasaki,Japan",35.5167,139.7,1539522
336,Kawasaki,Japan,4.47,44.67,1.24,171.22,32.85,58.32,223.36,570.8,2957.78,"Kawasaki,Japan",33.6,130.8153,15134
337,Daejeon,South Korea,6.15,44.17,1.33,97.78,20.45,29.38,522.4,349.54,2131.84,"Daejeon,South Korea",36.351,127.385,1475221
338,Munich,Germany,15.81,62.28,2.22,302.81,37.72,40.64,675.85,1427.72,3467.43,"Munich,Germany",48.1375,11.575,1488202
339,Yekaterinburg,Russia,9.6,32.8,0.81,120.47,9.26,33.07,316,458.67,1082.76,"Yekaterinburg,Russia",56.8356,60.6128,1468833
340,Valencia,Venezuela,10,60,0.5,12.37,48.33,86.25,69.66,273.95,150,"Valencia,Venezuela",10.1667,-68,1484430
341,Gwangju,South Korea,5.38,0,1.34,110.97,24.97,49.93,729.82,281.68,2139.52,"Gwangju,South Korea",35.1667,126.9167,1490092
342,Onitsha,Nigeria,0.68,0,0.34,23.64,45.03,50.66,56.28,506.56,123.83,"Onitsha,Nigeria",6.1667,6.7833,1483000
343,Virginia Beach,United States,23,70,1.04,109.17,73.62,35,800,1510,4178,"Virginia Beach,United States",36.7335,-76.0435,1478868
344,Kharkiv,Ukraine,4.49,5.98,0.91,104.25,4.59,17.97,233.89,338.59,399.61,"Kharkiv,Ukraine",50,36.2292,1446107
345,Huazhou,China,0,0,0,121,14.24,0,839.89,0,0,"Huazhou,China",32.6832,112.079,1468061
346,Huazhou,China,0,0,0,121,14.24,0,839.89,0,0,"Huazhou,China",21.654,110.6294,1302100
347,Abu Dhabi,United Arab Emirates,8.17,21.78,1.07,148.74,100.67,63.6,617.12,1574.22,3541.4,"Abu Dhabi,United Arab Emirates",24.4511,54.3969,1483000
348,Zapopan,Mexico,7.74,15.47,1.16,50.71,26.22,43.83,251.4,412.55,941.13,"Zapopan,Mexico",20.7167,-103.4,1476491
349,Muscat,Oman,5.19,51.95,0.63,89.02,77.24,43.87,249.44,651.71,1907.43,"Muscat,Oman",23.6139,58.5922,1421409
350,Bronx,United States,16,132,1.1,132.51,80.07,30,1000,1850,2000,"Bronx,United States",40.8501,-73.8662,1418207
351,Ulaanbaatar,Mongolia,4.4,6.53,0.79,63.85,12.53,57.6,106.4,298.08,315.53,"Ulaanbaatar,Mongolia",47.9214,106.9055,1396288
352,Khulna,Bangladesh,1.46,9.75,0.83,19.51,29.26,11.71,30.89,71.53,305.64,"Khulna,Bangladesh",22.8167,89.55,1400689
353,Milwaukee,United States,15,52.5,1.06,200.67,62.08,54.25,1341.67,1436.88,5043.75,"Milwaukee,United States",43.0642,-87.9673,1365787
354,Belgrade,Serbia,8.08,29.4,1.8,152.57,24.23,30.56,292.35,649.3,669.56,"Belgrade,Serbia",44.8167,20.4667,1378682
355,Milan,Italy,21.07,41.1,2.07,216.3,29.7,79.05,805.81,1335.89,1897.64,"Milan,Italy",45.4669,9.19,1366180
356,Auckland,New Zealand,16.03,137.9,1.92,149.77,54.87,47.4,785.19,1368.93,3978.79,"Auckland,New Zealand",-36.85,174.7833,1346091
357,Makassar,Indonesia,1.3,9.72,0.81,51.2,41.59,25.12,53.8,170.15,231.19,"Makassar,Indonesia",-5.1331,119.4136,1338663
358,Meerut,India,2.46,3.99,1.17,62.11,7.37,14.43,28.66,61.41,491.27,"Meerut,India",28.99,77.7,1305429
359,Montevideo,Uruguay,14.07,46.05,1.91,138.75,40.14,46.74,355,584.18,876.34,"Montevideo,Uruguay",-34.8667,-56.1667,1319108
360,Guarulhos,Brazil,5.27,38.32,1.26,33.53,19.16,18.2,373.61,249.07,306.55,"Guarulhos,Brazil",-23.4667,-46.5333,1324781
361,Saitama,Japan,4.84,37.23,1.13,161.35,46.53,50.88,203.5,446.71,1451.81,"Saitama,Japan",35.8617,139.6453,1320571
362,Adelaide,Australia,12.57,71.36,1.36,210.07,48.5,41.43,1213.53,1117.53,4144.98,"Adelaide,Australia",-34.9275,138.6,1295714
363,Barranquilla,Colombia,3.15,20.56,0.5,77.14,18.25,16.6,195.38,172.82,296.72,"Barranquilla,Colombia",10.9639,-74.7964,1274250
364,Jabalpur,India,3.07,6.14,1.3,29.48,6.75,19.45,42.37,124.35,388.92,"Jabalpur,India",23.1667,79.9333,1267564
365,Sofia,Bulgaria,10.69,26.72,1.74,134.2,12.8,29.6,437.97,446.35,1005.95,"Sofia,Bulgaria",42.6979,23.3217,1277411
366,Sharjah,United Arab Emirates,5.45,68.06,0.86,165.33,91.51,54.18,262.73,6678.3,1681.97,"Sharjah,United Arab Emirates",25.3575,55.3919,1247749
367,Kazan,Russia,7.98,24,0.81,102.68,6.82,31,340,516.67,645,"Kazan,Russia",55.7908,49.1144,1243500
368,Huaiyin,China,5.69,0,1.2,66,7.12,0,1382.62,0,0,"Huaiyin,China",33.5819,119.028,1264000
369,Abuja,Nigeria,3.38,33.77,0.4,31.52,55.44,38.27,183.86,2273.9,235.83,"Abuja,Nigeria",9.0556,7.4914,1235880
370,Nizhniy Novgorod,Russia,10,32,0.82,149.08,8.39,41.29,350.4,444.34,684.31,"Nizhniy Novgorod,Russia",56.3269,44.0075,1264075
371,Soweto,South Africa,7.13,0,1.25,92.43,40.76,0,85.54,296.54,0,"Soweto,South Africa",-26.2678,27.8586,1271628
372,Calgary,Canada,18.53,83.01,1.26,189.53,64.35,58.99,813.41,1121.71,3807.94,"Calgary,Canada",51.05,-114.0667,1239220
373,Laiwu,China,3.7,71.18,1.29,32.83,14.24,28.47,839.89,298.95,427.06,"Laiwu,China",36.1833,117.6667,1248636
374,Suwon,South Korea,6.15,46.09,1.27,135.07,27.14,38.84,153.65,486.55,2291.89,"Suwon,South Korea",37.2858,127.01,1234300
375,Chelyabinsk,Russia,12.8,27.49,0.79,140.58,8.31,37.84,160,296,483,"Chelyabinsk,Russia",55.15,61.4,1202371
376,Mandalay,Myanmar,2.94,23.88,0.71,33.75,76.88,39.37,0,333.05,901.12,"Mandalay,Myanmar",21.9831,96.0844,1225546
377,Providence,United States,24,40,1.28,174.48,57.8,25,1450,1750,4266.67,"Providence,United States",41.823,-71.4187,1203230
378,Providence,United States,24,40,1.28,174.48,57.8,25,1450,1750,4266.67,"Providence,United States",41.7033,-111.8121,7780
379,Providence,United States,24,40,1.28,174.48,57.8,25,1450,1750,4266.67,"Providence,United States",39.9092,-76.233,7029
380,Mombasa,Kenya,1.83,40.77,1.08,27.18,30.57,28.54,199.84,146.76,244.6,"Mombasa,Kenya",-4.05,39.6667,1200000
382,Maputo,Mozambique,16.44,13.18,1.16,77.9,123.73,59.25,282.02,989.04,261.03,"Maputo,Mozambique",-25.9153,32.5764,1191613
383,Vila Velha,Brazil,3.45,47.9,1.29,50.11,20.44,28.74,439.94,174.8,344.87,"Vila Velha,Brazil",3.2167,-51.2167,1209091
384,Vila Velha,Brazil,3.45,47.9,1.29,50.11,20.44,28.74,439.94,174.8,344.87,"Vila Velha,Brazil",-20.3364,-40.2936,472762
385,Rosario,Argentina,5,10,0.86,34.3,21.81,17.5,146.67,144.21,366.67,"Rosario,Argentina",-32.9575,-60.6394,1193605
386,Doha,Qatar,8.24,41.2,0.57,121.51,90.49,110.32,779.14,1835.36,3342.4,"Doha,Qatar",25.3,51.5333,1186023
387,Qom,Iran,3,0,0.74,33.01,19.17,35.63,69.97,356.25,400,"Qom,Iran",34.64,50.8764,1201158
388,Medina,Saudi Arabia,7.98,93.11,0.62,148.94,94.78,101.76,549.81,351.89,1463.2,"Medina,Saudi Arabia",24.4667,39.6,1180770
389,Jacksonville,United States,14,47.5,1.18,139.05,68.45,26.88,820,1441.18,4580.33,"Jacksonville,United States",30.3322,-81.6749,1181496
390,Jacksonville,United States,14,47.5,1.18,139.05,68.45,26.88,820,1441.18,4580.33,"Jacksonville,United States",34.7288,-77.3941,108856
391,Jacksonville,United States,14,47.5,1.18,139.05,68.45,26.88,820,1441.18,4580.33,"Jacksonville,United States",34.8807,-92.1302,28235
392,Jacksonville,United States,14,47.5,1.18,139.05,68.45,26.88,820,1441.18,4580.33,"Jacksonville,United States",39.7292,-90.2318,21685
393,Jacksonville,United States,14,47.5,1.18,139.05,68.45,26.88,820,1441.18,4580.33,"Jacksonville,United States",31.9642,-95.2617,14815
394,Jacksonville,United States,14,47.5,1.18,139.05,68.45,26.88,820,1441.18,4580.33,"Jacksonville,United States",33.8088,-85.7545,12544
396,Hiroshima,Japan,5.96,53.53,1.2,89.34,32.15,22.34,482.8,416.93,0,"Hiroshima,Japan",34.4,132.45,1198021
397,Omsk,Russia,8,32.8,0.81,126.82,8.39,32.1,300,325.33,547.85,"Omsk,Russia",54.9667,73.3833,1178391
398,Samara,Russia,9.6,31.76,0.8,106.24,7.85,31.04,290.67,354.42,642.46,"Samara,Russia",53.1833,50.1167,1169719
399,Ulsan,South Korea,7.3,0,1.3,110.97,23.05,69.14,729.82,326.5,2342.46,"Ulsan,South Korea",35.55,129.3167,1166033
400,Campinas,Brazil,5.75,51.73,1.24,69.31,18.82,29.38,288.99,337.68,600.84,"Campinas,Brazil",-22.9009,-47.0573,1164098
401,Dakar,Senegal,8.03,20.08,1.34,103.26,48.8,66.67,236.5,763.01,441.77,"Dakar,Senegal",14.7319,-17.4572,1146053
402,Kigali,Rwanda,2.58,12.2,1.34,49.76,31.79,34.26,154.6,435.74,414.52,"Kigali,Rwanda",-1.9536,30.0606,1156663
403,Bandar Lampung,Indonesia,1.62,0,0.55,64.82,34.03,12.86,162.05,64.82,210.66,"Bandar Lampung,Indonesia",-5.4294,105.2625,1166761
404,Dingzhou,China,7.12,0,0,21.35,0,0,0,0,0,"Dingzhou,China",38.5158,114.9845,1165182
405,Amritsar,India,1.23,24.56,1.21,45.03,8.75,9.21,24.56,61.41,233.35,"Amritsar,India",31.6269,74.877,1132383
406,Birmingham,United Kingdom,13.47,67.65,1.95,219.9,33.21,30.75,1440.86,992.61,2976.96,"Birmingham,United Kingdom",52.48,-1.9025,1137100
407,Monterrey,Mexico,10.31,23.2,1.17,99.66,27.35,32.78,283.63,597.01,973.79,"Monterrey,Mexico",25.6667,-100.3,1135512
408,Tripoli,Libya,6.17,22.79,0.03,18.26,23.1,28.81,63.52,250.16,298.35,"Tripoli,Libya",32.8752,13.1875,1126000
409,Tegucigalpa,Honduras,4,53.82,1.08,72.91,58.98,39.2,201.12,435.5,516.15,"Tegucigalpa,Honduras",14.0942,-87.2067,1126534
411,Ufa,Russia,8,16.13,0.81,122.75,7.72,37.8,357.33,428.95,630.27,"Ufa,Russia",54.7261,55.9475,1115560
412,Tbilisi,Georgia,10.17,14.79,1.42,74.47,20.48,52.41,213.06,797.36,477.11,"Tbilisi,Georgia",41.7225,44.7925,1118035
413,Copenhagen,Denmark,19.85,73.71,2.2,203.32,37.29,40.68,496.13,1765.18,3670.25,"Copenhagen,Denmark",55.6805,12.5615,1085000
414,Bhilai,India,5.53,3.68,1.28,25.79,7.59,27.63,39.92,98.25,179.31,"Bhilai,India",21.2186,81.4314,1097000
415,Krasnoyarsk,Russia,8,24,0.82,99.44,8,44.4,306.67,378.67,736,"Krasnoyarsk,Russia",56.0089,92.8719,1083865
417,Salt Lake City,United States,17,85,1.27,117.1,60.25,35.42,805.5,1606,4396.98,"Salt Lake City,United States",40.7777,-111.9306,1098526
418,Cologne,Germany,13.7,101.16,2.2,279.73,35.39,34.71,577.1,921.15,2480.27,"Cologne,Germany",50.9422,6.9578,1083498
419,Yerevan,Armenia,7.58,10.99,1.32,94.01,19.41,72.2,292.26,976.89,526.47,"Yerevan,Armenia",40.1814,44.5144,1075800
420,Gongzhuling,China,2.85,0,1.19,56.94,14.24,0,189.81,0,0,"Gongzhuling,China",43.5036,124.8088,1092692
421,Nashville,United States,16.5,67.5,1.08,190.35,81.93,67,1257,2078.57,4812.25,"Nashville,United States",36.1715,-86.7843,1081903
422,Nashville,United States,16.5,67.5,1.08,190.35,81.93,67,1257,2078.57,4812.25,"Nashville,United States",35.9692,-77.9555,5554
423,Richmond,United States,25,43.5,1.15,153.72,72.31,32,776.67,1506.5,5760.89,"Richmond,United States",37.5295,-77.4756,1075798
424,Richmond,United States,25,43.5,1.15,153.72,72.31,32,776.67,1506.5,5760.89,"Richmond,United States",37.9477,-122.339,110567
425,Richmond,United States,25,43.5,1.15,153.72,72.31,32,776.67,1506.5,5760.89,"Richmond,United States",39.8318,-84.8905,42373
426,Richmond,United States,25,43.5,1.15,153.72,72.31,32,776.67,1506.5,5760.89,"Richmond,United States",37.7306,-84.2926,40972
427,Richmond,United States,25,43.5,1.15,153.72,72.31,32,776.67,1506.5,5760.89,"Richmond,United States",29.5825,-95.7602,12578
428,Richmond,United States,25,43.5,1.15,153.72,72.31,32,776.67,1506.5,5760.89,"Richmond,United States",41.4983,-71.6608,7653
429,Richmond,United States,25,43.5,1.15,153.72,72.31,32,776.67,1506.5,5760.89,"Richmond,United States",42.8094,-82.7518,6262
430,Richmond,United States,25,43.5,1.15,153.72,72.31,32,776.67,1506.5,5760.89,"Richmond,United States",39.2755,-93.9731,5653
431,Memphis,United States,15.5,42.5,1.08,184.3,72.67,20.25,0,1408.33,4647.22,"Memphis,United States",35.1046,-89.9773,1066967
432,Memphis,United States,15.5,42.5,1.08,184.3,72.67,20.25,0,1408.33,4647.22,"Memphis,United States",27.5435,-82.5607,9647
433,Edmonton,Canada,18.53,74.11,1.26,189.4,59.09,46.98,711.5,906.92,3403.02,"Edmonton,Canada",53.5344,-113.4903,1062643
434,Vereeniging,South Africa,11,0,1.17,57.03,48.47,0,162.53,0,1140.54,"Vereeniging,South Africa",-26.6736,27.9319,1074000
435,Bishkek,Kyrgyzstan,5.33,5.92,0.75,34.36,13.46,38.89,148.76,340.69,267.61,"Bishkek,Kyrgyzstan",42.8667,74.5667,1053900
436,Nur-Sultan,Kazakhstan,6.38,14.88,0.43,45.61,11.74,38.76,186.87,405.89,564.52,"Nur-Sultan,Kazakhstan",51.1333,71.4333,1078362
437,Nouakchott,Mauritania,5.58,31.33,1.09,101.31,90.4,43.7,105.04,280.67,517.4,"Nouakchott,Mauritania",18.0858,-15.9785,1077169
438,Sendai,Japan,6.33,148.9,1.16,136.5,37.23,58.57,203.5,521.16,2771.26,"Sendai,Japan",38.2683,140.8694,1058070
439,Tunis,Tunisia,2.48,13.94,0.7,51.92,19.71,26.65,95.16,214.2,258.3,"Tunis,Tunisia",36.8008,10.18,1056247
440,San Pedro Sula,Honduras,6,44.08,1.15,105.78,74.47,41.35,159.09,254.17,592.57,"San Pedro Sula,Honduras",15.5,-88.0333,1073824
441,Kathmandu,Nepal,2.2,4.61,1.17,26.28,12.17,28.16,80.92,173.88,201.45,"Kathmandu,Nepal",27.7167,85.3667,975453
442,Gwalior,India,1.84,0,1.26,44.52,9.52,18.42,44.01,79.83,491.27,"Gwalior,India",26.215,78.1931,1069276
443,Perm,Russia,10.4,15.84,0.83,97.34,10.12,37.09,260,336,651.11,"Perm,Russia",58.0139,56.2489,1048005
444,Voronezh,Russia,11.2,24,0.83,116.99,6.92,41.64,340,306.37,666.28,"Voronezh,Russia",51.6717,39.2106,1047549
445,Mexicali,Mexico,8.87,23.21,1.11,73.44,19.34,23.72,180.49,292.22,586.6,"Mexicali,Mexico",32.6633,-115.4678,1049792
446,Barquisimeto,Venezuela,8.5,0,0.5,15,25,0,100,0,0,"Barquisimeto,Venezuela",10.0678,-69.3467,1059092
447,Raleigh,United States,15,20,1.14,188.64,66.42,37.09,1350,1676.33,4947.71,"Raleigh,United States",35.8325,-78.6435,1038738
448,Cartagena,Colombia,2.52,20.98,0.5,94.26,26.52,20.72,106.64,479.08,331.84,"Cartagena,Colombia",10.4236,-75.5253,1036412
449,Jodhpur,India,2.46,15.35,1.15,43.91,7.06,18.42,27.63,153.52,307.04,"Jodhpur,India",26.2944,73.0278,1033918
450,Changwon,South Korea,6.15,0,1.33,97.78,13.06,46.09,522.4,268.88,0,"Changwon,South Korea",35.2281,128.6811,1046054
451,Managua,Nicaragua,5,10,1.25,68.97,58.25,31.03,166.3,235.71,358.51,"Managua,Nicaragua",12.15,-86.2667,1028808
452,Bogor,Indonesia,2.11,17.18,0.78,66.44,36.64,31.33,162.05,234.97,364.61,"Bogor,Indonesia",-6.5917,106.8,1030720
453,Matola,Mozambique,16.44,0,1.16,77.9,123.73,0,282.02,469.85,0,"Matola,Mozambique",-25.9667,32.4667,1032197
455,Odesa,Ukraine,5.44,11.97,1.19,86.07,5.12,17.55,220.04,263.88,337.09,"Odesa,Ukraine",46.4775,30.7326,1017699
456,Shymkent,Kazakhstan,5.31,13.82,0.45,77.87,10.89,37.55,116.9,205.29,325.31,"Shymkent,Kazakhstan",42.3,69.6,1028673
457,Niamey,Niger,4.02,12.05,0.9,374.83,12.05,40.16,910.31,540.78,211.51,"Niamey,Niger",13.5086,2.1111,1026848
458,Mysore,India,1.04,8.6,1.26,19.35,8.3,22.52,43.8,122.82,736.91,"Mysore,India",12.3086,76.6531,1014227
459,Monrovia,Liberia,12.5,17,1.04,216.1,49.87,66.5,132.44,1312.5,2592,"Monrovia,Liberia",6.3106,-10.8047,1021762
460,Islamabad,Pakistan,1.34,5.36,1.05,82.57,20.25,16.76,47.36,168.66,218.01,"Islamabad,Pakistan",33.6989,73.0369,1014825
461,Louisville,United States,15,35,1.14,194.69,60.83,26.2,615,1212.5,4226.39,"Louisville,United States",38.1663,-85.6485,1005654
462,Louisville,United States,15,35,1.14,194.69,60.83,26.2,615,1212.5,4226.39,"Louisville,United States",39.9709,-105.1441,20816
463,Louisville,United States,15,35,1.14,194.69,60.83,26.2,615,1212.5,4226.39,"Louisville,United States",40.8371,-81.2643,9360
464,Louisville,United States,15,35,1.14,194.69,60.83,26.2,615,1212.5,4226.39,"Louisville,United States",33.1224,-89.0553,5983
465,New Orleans,United States,19.75,45,1.04,195.88,72.93,61.29,700,1614.38,3405.25,"New Orleans,United States",30.0687,-89.9288,1020886
466,Raipur,India,1.47,3.07,1.26,30.7,7.86,29.78,40.94,138.17,532.21,"Raipur,India",21.2379,81.6337,1010087
467,Raipur,India,1.47,3.07,1.26,30.7,7.86,29.78,40.94,138.17,532.21,"Raipur,India",22.8,86.95,6280
468,Port-au-Prince,Haiti,12,0,0.66,100,165.98,69.54,100,600,396.16,"Port-au-Prince,Haiti",18.5425,-72.3386,987310
469,Villahermosa,Mexico,4.64,0,1.18,48.6,25.4,34.81,366.14,180.49,606.18,"Villahermosa,Mexico",17.9892,-92.9281,1013484
470,Volgograd,Russia,7.2,19.2,0.84,125.45,9.09,36,240,304,488,"Volgograd,Russia",48.7086,44.5147,1015586
471,Quetta,Pakistan,1.34,1.68,0.72,71.93,26.45,7.82,35.76,59.6,147.52,"Quetta,Pakistan",30.192,67.007,1001205
472,Ottawa,Canada,18.53,91.72,1.43,119.98,59.52,52.35,971.73,1271.64,3319.71,"Ottawa,Canada",45.4247,-75.695,989567
473,Arequipa,Peru,2.87,13.62,1.1,37.96,41.42,41.55,208.2,234.96,379.47,"Arequipa,Peru",-16.3988,-71.5369,1008290
474,Port Harcourt,Nigeria,1.46,11.26,0.4,16.13,45.03,36.59,73.17,1013.13,172.61,"Port Harcourt,Nigeria",4.75,7,1005904
475,Stockholm,Sweden,12.59,93.94,2.16,102.95,34.07,43.09,134.78,1375.6,3021.18,"Stockholm,Sweden",59.3294,18.0686,975819
476,Jerusalem,Israel,17.62,62.54,2.03,154.97,27.66,71.34,805.55,1291.82,2811.67,"Jerusalem,Israel",31.7833,35.2167,919438
477,Vientiane,Laos,3,5.94,1.31,95,102.02,34.22,0,509.69,312.04,"Vientiane,Laos",17.9667,102.6,948487
478,Kota,India,1.11,6.14,1.32,27.98,9.21,8.6,36.85,61.41,368.45,"Kota,India",25.18,75.83,1001694
479,Kota,India,1.11,6.14,1.32,27.98,9.21,8.6,36.85,61.41,368.45,"Kota,India",14.0333,80.05,16237
480,Zagreb,Croatia,9.77,50.26,1.81,201.27,25.28,43.75,145.69,580.82,1140.62,"Zagreb,Croatia",45.8131,15.9772,790017
481,Colombo,Sri Lanka,1.36,4.07,1.17,23.56,9.61,9.43,26.55,295.76,156.15,"Colombo,Sri Lanka",6.9167,79.8333,752993
482,Lilongwe,Malawi,3.41,44.64,1.03,53.55,111.98,36.03,230.44,350.54,292.11,"Lilongwe,Malawi",-13.9833,33.7833,781538
483,Dushanbe,Tajikistan,3.97,6.95,0.94,31.26,22.17,34.86,84.39,376.03,163.81,"Dushanbe,Tajikistan",38.5731,68.7864,778500
484,Pretoria,South Africa,6.84,47.05,1.25,95.97,49.3,36.64,215.24,299.65,1382.39,"Pretoria,South Africa",-25.7464,28.1881,741651
485,Amsterdam,Netherlands,19.49,104.85,2.25,281.94,49.7,42.77,1853.84,1799.7,3655.44,"Amsterdam,Netherlands",52.3667,4.8833,862965
486,Asmara,Eritrea,11.4,0,2.17,30,0,0,25,650,1060,"Asmara,Eritrea",15.3333,38.9167,963000
487,Freetown,Sierra Leone,4.31,4.5,1,130.42,100,76.27,20,1438.66,1544.66,"Freetown,Sierra Leone",8.4833,-13.2331,951000
488,Winnipeg,Canada,14.82,77.08,1.4,145.32,60.69,33.21,526.77,817.87,2145.63,"Winnipeg,Canada",49.8844,-97.1464,705244
489,Libreville,Gabon,15.13,52.21,1.03,107.09,66.93,70.68,110.44,863.45,461.85,"Libreville,Gabon",0.3901,9.4544,797003
490,Helsinki,Finland,13.7,68.49,2.35,108.82,22.85,38.9,399.76,1044.71,2874.65,"Helsinki,Finland",60.1756,24.9342,642045
491,Panama City,Panama,8,27.5,1.07,98.85,46.98,39.36,358.89,908.95,804.44,"Panama City,Panama",9,-79.5,880691
492,Athens,Greece,12.64,31.61,2.27,265.12,32.2,39.75,493.99,521.69,960.36,"Athens,Greece",37.9842,23.7281,664046
493,Oslo,Norway,20.55,83.64,2.22,244.58,50.07,46.68,339.32,1436.01,3645.72,"Oslo,Norway",59.9111,10.7528,693494
494,Cotonou,Benin,3.21,0,0.87,24.6,47.19,60.24,200.8,194.78,212.85,"Cotonou,Benin",6.402,2.518,762000
495,Chisinau,Moldova,6.15,12,1.49,145.96,9.02,24.38,304.53,317.16,448.7,"Chisinau,Moldova",47.0228,28.8353,639000
496,Quebec City,Canada,14.88,65.96,1.44,96.59,50.98,36.48,662.54,721.93,3012.07,"Quebec City,Canada",46.8139,-71.2081,705103
497,Bujumbura,Burundi,1.94,14.58,1.17,18.43,23.02,14.97,52.42,282.62,312.97,"Bujumbura,Burundi",-3.3825,29.3611,658859
498,Rabat,Morocco,3.31,23.61,1.27,37.51,31.94,23.18,130,436.3,427.64,"Rabat,Morocco",34.0253,-6.8361,572717
499,Riga,Latvia,11.06,52.69,2.01,304.7,17.79,40.83,383.61,459.6,1091.09,"Riga,Latvia",56.9475,24.1069,614618
500,Kingston,Jamaica,6.5,32.48,1.33,133.62,40.65,52.33,253.35,634.86,584.66,"Kingston,Jamaica",17.9714,-76.7931,580000
501,Vilnius,Lithuania,10.01,31.09,1.95,205.18,14.55,32.99,452.78,773.15,1276.18,"Vilnius,Lithuania",54.6833,25.2833,574147
502,Dublin,Ireland,21.07,126.45,2.14,234.35,59.14,48.43,1280.3,2018.71,3177.2,"Dublin,Ireland",53.3497,-6.2603,553165
503,Tallinn,Estonia,13.7,31.61,2.06,305.91,27.23,54.35,314.95,700.34,1423.7,"Tallinn,Estonia",59.4372,24.745,438341
504,Lisbon,Portugal,12.64,42.15,2.12,130.77,35.58,39.89,436.52,1242.34,1125.31,"Lisbon,Portugal",38.708,-9.139,506654
505,Beirut,Lebanon,10,80,1.31,278.36,65.01,51.62,410.42,718.75,370.25,"Beirut,Lebanon",33.8869,35.5131,361366
506,Djibouti,Djibouti,9.27,308.99,1.45,321.92,37.16,64.04,140.45,814.61,519.66,"Djibouti,Djibouti",11.595,43.1481,562000
507,Tirana,Albania,5.86,14.42,2.13,92.68,15.95,36.09,178.3,431.27,463.59,"Tirana,Albania",41.33,19.82,418495
508,Kitchener,Canada,14.82,66.7,1.41,152.05,57.06,31.31,815.26,1289.29,3369.02,"Kitchener,Canada",43.4186,-80.4728,470015
509,Bratislava,Slovakia,8.43,31.61,1.88,219.17,20.04,34.77,536.65,680.69,1279.31,"Bratislava,Slovakia",48.1447,17.1128,475503
510,Halifax,Canada,14.82,61.14,1.42,140.5,75.81,44.31,651.59,1217.45,3072.15,"Halifax,Canada",44.6475,-63.5906,403131
511,Canberra,Australia,15.63,71.36,1.37,147.67,51.28,45.75,1248.73,1536.53,4432.43,"Canberra,Australia",-35.2931,149.1269,381488
512,Wellington,New Zealand,12.83,96.21,1.81,138.14,53.65,33.42,694.14,1415.61,3549.49,"Wellington,New Zealand",-41.2889,174.7772,418500
513,Victoria,Canada,18.53,63,1.59,97.44,70.19,50.79,914.08,1488.87,3521.25,"Victoria,Canada",48.4283,-123.3647,335696
514,Bissau,Guinea-Bissau,2.62,0,1.07,16.06,0,72.29,0,346.16,1008.78,"Bissau,Guinea-Bissau",11.8592,-15.5956,395954
515,Maseru,Lesotho,0,0,0.81,57.03,44.2,26.61,31.36,285.13,1140.54,"Maseru,Lesotho",-29.31,27.48,330790
516,Windhoek,Namibia,8.58,22.44,1.07,92.44,48.6,39.31,140.08,382.36,564.61,"Windhoek,Namibia",-22.57,17.0836,322500
517,Nicosia,Cyprus,13.7,42.15,1.54,164.68,31.45,59.71,351.57,635.41,1449.65,"Nicosia,Cyprus",35.1725,33.365,330000
519,Dodoma,Tanzania,6.43,6.43,1.02,59.86,54.29,53.58,439.35,200.03,317.19,"Dodoma,Tanzania",-6.1835,35.746,410956
520,Ljubljana,Slovenia,10.54,38.99,1.63,253.55,34.72,44.77,488.49,703.57,1392.17,"Ljubljana,Slovenia",46.05,14.5167,286745
521,Bloemfontein,South Africa,4.85,19.96,1.16,62.73,66.53,0,125.46,168.23,1273.6,"Bloemfontein,South Africa",-29.1,26.2167,256185
522,Sarajevo,Bosnia And Herzegovina,5.38,28.49,1.73,157.04,24.95,26.6,182.45,280.46,755.85,"Sarajevo,Bosnia And Herzegovina",43.8563,18.4132,275524
523,Cape Town,South Africa,8.55,29.75,1.3,75.45,46.26,41.35,190.98,690.17,1254.87,"Cape Town,South Africa",-33.925,18.425,433688
524,Dili,Timor-Leste,5,0,0.98,112.5,82.5,64,333.33,680,3500,"Dili,Timor-Leste",-8.5536,125.5783,222323
525,Sucre,Bolivia,2.89,23.14,1.3,21.69,101.24,28.92,94.01,406.98,180.78,"Sucre,Bolivia",-19.0431,-65.2592,300000
526,Male,Maldives,5.56,21.6,0.89,159.57,103.19,75.29,155.07,860.88,800.51,"Male,Maldives",4.175,73.5083,133019
527,Paramaribo,Suriname,4.86,90,0.84,92.78,37.5,13.68,81.67,394.71,234.55,"Paramaribo,Suriname",5.8667,-55.1667,223757
528,Gaborone,Botswana,11.62,21.84,1.02,46.85,47.19,36.87,156.06,256.35,724.69,"Gaborone,Botswana",-24.6569,25.9086,231626
529,Gibraltar,Gibraltar,17.84,12.3,1.33,108.5,46.48,69.67,888.33,1728.41,3385.92,"Gibraltar,Gibraltar",36.1324,-5.3781,187083
530,Port Moresby,Papua New Guinea,9.84,38.34,1.21,107.05,379.33,60.46,598.62,2162.16,401.85,"Port Moresby,Papua New Guinea",-9.4789,147.1494,317374
531,Georgetown,Guyana,5.49,34.14,1.02,80.1,60.15,29.24,103.44,323.57,410.92,"Georgetown,Guyana",6.7833,-58.1667,200500
532,Podgorica,Montenegro,5.8,28.45,1.56,112.63,26.24,34.54,156.74,367.05,644.09,"Podgorica,Montenegro",42.4397,19.2661,174515
533,Fort-de-France,Martinique,10.54,46.89,1.68,101.86,36.88,31.61,31.61,656.83,2094.32,"Fort-de-France,Martinique",14.6104,-61.08,253995
534,Manama,Bahrain,5.3,37.13,0.51,169.42,47.66,86.94,320.5,967.04,2080.33,"Manama,Bahrain",26.225,50.5775,157474
535,Bern,Switzerland,26.71,84.41,2.06,204.87,54.39,64.35,2564.28,1268.78,6090.17,"Bern,Switzerland",46.948,7.4474,133798
536,Saint-Denis,Reunion,8.17,36.88,1.88,108.71,49.26,39.52,0,704.69,1159.12,"Saint-Denis,Reunion",-20.8789,55.4481,190047
537,Malabo,Equatorial Guinea,12.85,44.3,0.78,46.59,160.64,54.89,68.27,200.8,321.28,"Malabo,Equatorial Guinea",3.7521,8.7737,187302
538,Papeete,French Polynesia,15.89,26.49,1.25,191.33,96.55,72.85,0,912.47,1427.58,"Papeete,French Polynesia",-17.5334,-149.5667,131695
539,Luxembourg,Luxembourg,21.07,0,1.73,301.9,56.49,49.66,1088.87,1766.92,4272.11,"Luxembourg,Luxembourg",49.6106,6.1328,128512
540,Bridgetown,Barbados,20,36,2.1,100,50,73.12,241.67,487.5,1333.33,"Bridgetown,Barbados",13.0975,-59.6167,110000
541,Suva,Fiji,3.64,36.21,1.29,47.86,26.61,31.76,187.66,563.67,1597.77,"Suva,Fiji",-18.1333,178.4333,88271
542,Ankara,Turkey,3.76,18.73,1.4,51,8.71,19.94,199.61,283.17,371.38,"Ankara,Turkey",39.93,32.85,77168
543,Sri Jayewardenepura Kotte,Sri Lanka,1.08,2.44,0.78,40.68,16.27,8.59,14.92,77.97,81.36,"Sri Jayewardenepura Kotte,Sri Lanka",6.9,79.9164,115826
545,Honiara,Solomon Islands,5.47,0,1.22,6.07,485991.77,60.75,121.5,587.24,718.86,"Honiara,Solomon Islands",-9.4333,159.95,84520
546,Monaco,Monaco,26.34,37.93,1.93,184.18,57.6,553.22,0,5490.31,5589.37,"Monaco,Monaco",43.7396,7.4069,36371
547,Thimphu,Bhutan,3.08,15.34,1.11,34.04,20.5,71.63,43.95,171.76,366.55,"Thimphu,Bhutan",27.4833,89.6333,104000
548,Mbabane,Swaziland,1.03,29.94,1.26,92.19,54.35,27.56,128.04,414.39,779.37,"Mbabane,Swaziland",-26.3208,31.1617,94874
549,Cayenne,French Guiana,12.64,0,1.77,196.17,69.37,42.1,843,777.14,2107.49,"Cayenne,French Guiana",4.933,-52.33,61550
550,Castries,Saint Lucia,7.4,0,1.43,68.08,58.74,43.01,169.59,417.2,1375.24,"Castries,Saint Lucia",14.0167,-60.9833,70000
551,Port-Vila,Vanuatu,12.71,0,1.44,285.2,141.9,67.47,544.08,995.46,677.68,"Port-Vila,Vanuatu",-17.7333,168.3167,51437
552,Hamilton,Bermuda,29,69,2.25,271.65,142,168.57,1201.6,3250,5973.81,"Hamilton,Bermuda",32.2942,-64.7839,52320
553,Bandar Seri Begawan,Brunei,2.96,22.18,0.39,55.74,80.9,40.64,213.99,677.17,1748.71,"Bandar Seri Begawan,Brunei",4.9167,114.9167,50000
554,Douglas,Isle Of Man,22.14,39.36,1.78,135.51,50.02,37.51,830.25,1060.88,4608.5,"Douglas,Isle Of Man",54.15,-4.4819,27938
555,Oranjestad,Aruba,12,50,1.25,190.43,68,71.64,197.22,770.54,1509.46,"Oranjestad,Aruba",12.5186,-70.0358,34980
556,Apia,Samoa,4.63,0,1.04,556.06,110.84,50.05,77.23,1112.12,0,"Apia,Samoa",-13.8333,-171.8333,37708
557,Port of Spain,Trinidad And Tobago,11.36,58.99,0.9,83.58,46.57,49.61,173.15,525.39,768.72,"Port of Spain,Trinidad And Tobago",10.6667,-61.5167,37074
558,Saint Helier,Jersey,27.68,63.96,1.79,224.76,58.96,75.03,1952.63,1665.23,2893.88,"Saint Helier,Jersey",49.1858,-2.11,33522
559,Nuuk,Greenland,17.01,78.81,0.78,212.63,212.63,38.91,0,992.26,4252.54,"Nuuk,Greenland",64.175,-51.7333,18326
560,Ashgabat,Turkmenistan,28.57,11.43,0.43,1066.67,339.29,85.71,22.86,592.86,561.9,"Ashgabat,Turkmenistan",37.95,58.3833,19426
561,Majuro,Marshall Islands,15.2,100,1.55,533.33,71.67,26.67,0,1116.67,1050,"Majuro,Marshall Islands",7.0918,171.3802,30000
562,Belmopan,Belize,3.98,0,1.42,79.75,85.95,0,0,349.28,1023.05,"Belmopan,Belize",17.25,-88.7675,17222
563,Basseterre,Saint Kitts And Nevis,12.95,0,2.44,111.01,53.65,92.51,138.76,610.53,0,"Basseterre,Saint Kitts And Nevis",17.2983,-62.7342,13220
564,Kingstown,Saint Vincent And The Grenadines,11.1,49.95,3.7,54.27,45.64,24.05,123.34,342.27,555.03,"Kingstown,Saint Vincent And The Grenadines",13.1667,-61.2333,25000
565,Victoria,Seychelles,16.01,23.06,1.28,67.51,118.26,67.69,351.25,875.37,597.42,"Victoria,Seychelles",-4.6236,55.4544,26450
566,Valletta,Malta,18.97,27.4,1.44,158.99,53.86,75.52,561.65,981.3,1184.8,"Valletta,Malta",35.8978,14.5125,6444
567,Andorra la Vella,Andorra,14.23,31.61,1.39,76.19,40.39,46.89,551.46,784.48,2509.67,"Andorra la Vella,Andorra",42.5,1.5,22615
568,Roseau,Dominica,5.55,14.8,1.14,46.25,64.75,62.9,141.84,345.88,487.69,"Roseau,Dominica",15.3,-61.3833,16582
570,Grand Turk,Turks And Caicos Islands,0,0,0,200,88,0,0,750,5750,"Grand Turk,Turks And Caicos Islands",21.4664,-71.136,5801
572,Vaduz,Liechtenstein,26.71,53.42,1.76,194.84,54.13,74.79,240.4,1522.05,7241.72,"Vaduz,Liechtenstein",47.1397,9.5219,5668
573,Avarua,Cook Islands,9.62,0,0,128.28,0,0,0,166.76,0,"Avarua,Cook Islands",-21.207,-159.771,5445
574,San Marino,San Marino,15.81,52.69,1.4,68.7,31.26,63.22,266.95,605.9,2595.73,"San Marino,San Marino",43.932,12.4484,4040
575,Brades,Montserrat,9.25,0,0,84.18,71.04,0,111.01,379.27,1665.09,"Brades,Montserrat",16.7928,-62.2106,391
577,Philipsburg,Sint Maarten,14,0,1.22,283.33,109.33,65,391.67,1233.33,2333.33,"Philipsburg,Sint Maarten",18.0256,-63.0492,0
578,Yaren,Nauru,10.87,0,1.22,271.83,0,0,0,1698.95,611.62,"Yaren,Nauru",-0.5477,166.9209,0
579,Road Town,British Virgin Islands,20,0,1.14,250,105.67,140,562.5,1833.33,2150,"Road Town,British Virgin Islands",18.4167,-64.6167,0
580,The Valley,Anguilla,8,0,1.72,225,77.5,45,150,800,1500,"The Valley,Anguilla",18.2167,-63.05,0
581,Bareilly,India,2.15,6.14,1.23,49.13,7.37,6.14,24.56,67.55,307.04,"Bareilly,India",28.364,79.415,1000000
582,Natal,Brazil,3.35,47.9,1.27,76.88,16.05,18.2,223.53,182.01,502.55,"Natal,Brazil",-6.9838,-60.2699,980588
583,Natal,Brazil,3.35,47.9,1.27,76.88,16.05,18.2,223.53,182.01,502.55,"Natal,Brazil",-5.795,-35.2089,877662
584,Naples,Italy,15.81,38.99,2.18,149.59,30.48,51.28,268.92,667.37,1408.51,"Naples,Italy",40.8333,14.25,966144
586,Chiba,Japan,5.58,89.34,1.24,245.23,34.62,76.93,372.26,521.16,2124.36,"Chiba,Japan",35.6073,140.1064,981738
587,Dnipro,Ukraine,6.8,11.82,1.06,83.21,5.04,16.38,247.03,317.86,388.55,"Dnipro,Ukraine",48.4675,35.04,980948
588,Coimbatore,India,2.46,10.44,1.26,29.02,9.31,41.58,55.73,157.62,368.45,"Coimbatore,India",11,76.9667,959823
589,Kirkuk,Iraq,4.72,0,0.35,88.75,27.5,28.46,89.17,187.5,1000,"Kirkuk,Iraq",35.4667,44.4,975000
590,Zamboanga City,Philippines,1.79,0,1.31,103.17,35.87,26.91,0,0,0,"Zamboanga City,Philippines",6.9167,122.0833,977234
591,Oklahoma City,United States,11,50,1.07,235.41,75.88,24.25,1000,1281.25,3167.94,"Oklahoma City,United States",35.4676,-97.5136,972943
592,Morelia,Mexico,7.74,15.47,1.08,40.29,21.54,23.21,192.52,257.84,360.98,"Morelia,Mexico",19.7683,-101.1894,962555
593,Tangier,Morocco,2.83,9.44,1.24,41.22,36.6,20.24,74.84,344.06,388.41,"Tangier,Morocco",35.7767,-5.8039,947952
594,Setagaya,Japan,4.47,51,1.24,75.94,40.95,64.52,341.24,1285.54,1712.39,"Setagaya,Japan",35.6464,139.6533,940509
595,Cebu City,Philippines,2.69,8.03,1.32,76.16,43.42,31.53,99.43,512.63,255.18,"Cebu City,Philippines",10.293,123.902,964169
596,Aguascalientes,Mexico,6.19,11.35,1.13,39.37,26.01,29.1,135.63,238.51,850.89,"Aguascalientes,Mexico",21.876,-102.296,934424
597,Marrakech,Morocco,3.31,10.39,1.36,58.96,34.41,24.4,117.54,375.7,345.66,"Marrakech,Morocco",31.6295,-7.9811,928850
598,Trujillo,Peru,2.61,0,1.18,59.39,26.11,18.93,156.64,221.9,272.38,"Trujillo,Peru",-8.1119,-79.0289,919899
599,Buffalo,United States,15,75,1.16,177.81,73.5,30,1800,1388.33,4264.26,"Buffalo,United States",42.9016,-78.8487,914341
600,Buffalo,United States,15,75,1.16,177.81,73.5,30,1800,1388.33,4264.26,"Buffalo,United States",45.1796,-93.8644,16993
601,Buffalo,United States,15,75,1.16,177.81,73.5,30,1800,1388.33,4264.26,"Buffalo,United States",40.706,-79.7387,7308
602,Donetsk,Ukraine,4.49,9.72,0.83,45.91,4.59,42.04,233.89,132.34,228.93,"Donetsk,Ukraine",48.0089,37.8042,929063
604,Bridgeport,United States,20,70,1.2,279.31,72.02,21.83,935,1803.5,2890,"Bridgeport,United States",41.1918,-73.1953,924449
605,Bridgeport,United States,20,70,1.2,279.31,72.02,21.83,935,1803.5,2890,"Bridgeport,United States",39.3036,-80.2477,8842
606,Bridgeport,United States,20,70,1.2,279.31,72.02,21.83,935,1803.5,2890,"Bridgeport,United States",33.21,-97.7708,6653
607,Bridgeport,United States,20,70,1.2,279.31,72.02,21.83,935,1803.5,2890,"Bridgeport,United States",43.3706,-83.8828,6425
609,Hartford,United States,20,40,1.23,103.15,60.95,22.5,1500,1925,5133.33,"Hartford,United States",41.7661,-72.6834,905152
610,Hartford,United States,20,40,1.23,103.15,60.95,22.5,1500,1925,5133.33,"Hartford,United States",43.3223,-88.3782,15445
611,Hartford,United States,20,40,1.23,103.15,60.95,22.5,1500,1925,5133.33,"Hartford,United States",43.6644,-72.3866,9643
612,Fort Worth,United States,14,95.22,1.1,212.5,80.62,27.8,1150,1387.5,4479.5,"Fort Worth,United States",32.7811,-97.3473,909585
613,Hubli,India,3.07,15.35,1.35,13.48,6.14,7.37,98.25,76.76,368.45,"Hubli,India",15.3619,75.1231,890000
614,Bucheon,South Korea,7.68,0,1.38,135.98,18.44,46.09,404.15,326.5,1762.4,"Bucheon,South Korea",37.4989,126.7831,867678
615,Campo Grande,Brazil,3.83,60.6,1.25,54.68,17.96,15.57,124.54,255.46,252.83,"Campo Grande,Brazil",-20.4686,-54.6222,906092
616,Tucson,United States,15,37.5,1.11,241.89,69.96,32.5,1033.33,1175,4063.33,"Tucson,United States",32.1545,-110.8782,888486
617,Krasnodar,Russia,15.04,22.4,0.83,132.02,9.39,36.71,289,385.45,632,"Krasnodar,Russia",45.0333,38.9833,881476
619,Chihuahua,Mexico,7.74,25.78,1.14,51.57,24.46,36.27,175.33,264.29,795.59,"Chihuahua,Mexico",28.6353,-106.0889,878062
620,Turin,Italy,13.7,40.04,2.06,190.84,29.49,38.74,601.95,573.48,1621.41,"Turin,Italy",45.0667,7.7,870952
621,Taguig City,Philippines,5.38,7.18,1.38,144.61,31.09,111.84,144.53,735.62,394.73,"Taguig City,Philippines",14.5167,121.05,886722
622,Klang,Malaysia,1.94,22.79,0.47,55.27,23.78,34.87,166.06,341.88,455.84,"Klang,Malaysia",3.0333,101.45,878000
624,Jalandhar,India,1.84,2.46,1.21,37.99,8.75,19.34,42.58,135.1,442.14,"Jalandhar,India",31.3256,75.5792,873725
625,Antipolo,Philippines,4.49,0,1.34,152.13,22.43,14.35,199.36,215.3,262.51,"Antipolo,Philippines",14.5842,121.1763,887399
626,Saltillo,Mexico,12.89,15.47,1.12,38.1,26.43,30.08,321.45,232.06,876.67,"Saltillo,Mexico",25.4333,-101,864431
627,Marseille,France,13.17,52.69,2.13,151.71,31.76,27.65,579.56,715.23,2596.01,"Marseille,France",43.2964,5.37,868277
628,Malang,Indonesia,1.3,3.89,0.79,43.75,23.77,16.2,68.06,205.26,207.42,"Malang,Indonesia",-7.98,112.62,866118
629,Ipoh,Malaysia,2.28,16.87,0.47,42.45,23.13,45.58,142.07,307.69,936.41,"Ipoh,Malaysia",4.6,101.07,866772
630,Hermosillo,Mexico,7.74,12.89,1.18,58.82,34.98,36.1,225.61,305.12,741.3,"Hermosillo,Mexico",29.0989,-110.9542,855563
631,Ikeja,Nigeria,1.01,0,0.34,11.26,22.51,0,27.83,0,0,"Ikeja,Nigeria",6.6186,3.3426,861300
632,Saratov,Russia,8,16,0.82,111.91,9.08,29.07,160,326.4,528,"Saratov,Russia",51.5333,46,845300
633,Omaha,United States,20,54.25,1.24,235.15,77.46,36.07,1446.67,1093.33,3772,"Omaha,United States",41.2627,-96.0522,847819
634,Denpasar,Indonesia,2.9,12.96,0.77,49.15,30.44,25.93,137.74,206.61,234.97,"Denpasar,Indonesia",-8.6667,115.2167,834881
636,Ilorin,Nigeria,1.13,13.51,0.37,18.01,43.74,11.26,32.08,337.71,84.43,"Ilorin,Nigeria",8.5,4.55,847582
637,Akure,Nigeria,0.68,13.51,0.34,11.26,11.26,13.51,56.28,405.25,120.07,"Akure,Nigeria",7.25,5.195,847903
638,Erbil,Iraq,5.49,25.35,0.73,98.88,30.31,49.53,232.48,492.96,641.26,"Erbil,Iraq",36.1911,44.0094,846000
639,El Paso,United States,12,41.5,1.1,193.29,57.5,38.75,0,916.67,4338.43,"El Paso,United States",31.8479,-106.4309,843386
640,Pasig City,Philippines,3.41,8.5,1.27,98.4,44.84,40.82,503.37,448.55,436.59,"Pasig City,Philippines",14.575,121.0833,803159
641,Honolulu,United States,18,75,1.37,282.08,66.61,58.34,1000,2051.43,4091.19,"Honolulu,United States",21.3294,-157.846,820987
642,Bhubaneshwar,India,1.84,5.53,1.29,27.62,9.23,17.3,71.64,166.36,509.69,"Bhubaneshwar,India",20.2644,85.8281,837737
643,Cheongju,South Korea,6.15,76.82,1.38,135.98,18.44,64.53,230.47,192.06,1690.11,"Cheongju,South Korea",36.6372,127.4897,833276
644,Warri,Nigeria,1.13,0,0.35,27.02,0,28.14,182.36,585.36,75.42,"Warri,Nigeria",5.5167,5.75,830106
645,Butterworth,Malaysia,2.28,0,0.47,48.12,29.81,43.3,142.07,0,888.89,"Butterworth,Malaysia",5.3992,100.3639,821652
646,McAllen,United States,12,0,1.1,123.52,75,16,846.32,772.5,2636,"McAllen,United States",26.2273,-98.2471,804114
647,Leeds,United Kingdom,14.76,92.25,1.96,294.14,40.72,37.71,932.75,1014.75,2780.58,"Leeds,United Kingdom",53.7997,-1.5492,789194
648,Valencia,Spain,12.64,31.61,1.7,141.51,34.19,38.74,460.35,808.48,1557.61,"Valencia,Spain",39.47,-0.3764,789744
649,Niigata,Japan,5.96,59.56,1.2,171.22,32.85,72.96,111.68,409.49,1712.39,"Niigata,Japan",37.9161,139.0364,790646
650,Hamamatsu,Japan,4.84,59.56,1.24,152.21,29.78,81.9,553.74,409.49,1675.17,"Hamamatsu,Japan",34.7167,137.7333,788211
651,Frankfurt,Germany,14.75,98.1,2.25,341.76,38.65,47.13,765.68,1169.07,3365.64,"Frankfurt,Germany",50.1136,8.6797,764104
652,Homs,Syria,5.98,4,1.07,200,0,9,66.67,76.67,46.33,"Homs,Syria",34.7333,36.7167,775404
653,Albuquerque,United States,15,30,1.12,129.67,74.35,34.62,866.67,1364.58,5317.78,"Albuquerque,United States",35.1053,-106.6464,761195
654,Hempstead,United States,15,0,0,150,64,10.75,0,2200,0,"Hempstead,United States",40.6629,-73.6089,767417
655,Hempstead,United States,15,0,0,150,64,10.75,0,2200,0,"Hempstead,United States",30.1004,-96.0779,8355
656,Bahawalpur,Pakistan,0.67,9.39,0.77,40.23,16.76,6.71,14.9,43.96,106.17,"Bahawalpur,Pakistan",29.3956,71.6722,762111
657,Kaduna,Nigeria,1.01,42.78,0.36,18.01,33.77,22.51,56.28,0,135.08,"Kaduna,Nigeria",10.5105,7.4165,760084
658,Pietermaritzburg,South Africa,6.84,0,1.22,228.11,65.58,17.39,104.07,263.75,1178.55,"Pietermaritzburg,South Africa",-29.6009,30.3796,750845
659,Thiruvananthapuram,India,1.6,9.21,1.27,28.15,9.52,16.89,42.99,110.54,698.1,"Thiruvananthapuram,India",8.5,76.8997,743691
660,Samarinda,Indonesia,2.59,0,0.49,113.04,64.82,12.96,0,194.46,0,"Samarinda,Indonesia",-0.5022,117.1536,753370
661,Changhua,Taiwan,3.27,0,0,58.91,12.7,45.82,0,229.11,981.9,"Changhua,Taiwan",24.0667,120.5333,750000
662,Ciudad Guayana,Venezuela,8.5,0,0.5,15,60,15,60,150,0,"Ciudad Guayana,Venezuela",8.3596,-62.6517,751331
663,Valenzuela,Philippines,4.49,6.28,1.25,71.77,38.87,0,37.38,107.65,346.88,"Valenzuela,Philippines",14.7,120.9833,714978
664,Zaporizhzhia,Ukraine,5.44,8.16,1.24,84.77,4.28,19.49,135.98,149.58,346.75,"Zaporizhzhia,Ukraine",47.8378,35.1383,741717
665,Tyumen,Russia,9.6,27.84,0.82,100.12,8.8,28.46,320,427.2,765.6,"Tyumen,Russia",57.15,65.5333,744554
666,Lviv,Ukraine,4.49,6.26,1.34,69.13,4.73,20.52,210.77,380.95,454.48,"Lviv,Ukraine",49.8419,24.0315,724314
667,Kumamoto,Japan,8.93,0,1.19,145.8,59.56,0,215.91,297.81,0,"Kumamoto,Japan",32.8031,130.7078,738385
668,Osogbo,Nigeria,1.58,0,0.34,11.26,22.51,11.26,27.83,337.71,90.06,"Osogbo,Nigeria",7.7597,4.5761,731000
669,Sarasota,United States,25,64.5,1.14,146.65,74.79,29.12,800,2091.67,2800,"Sarasota,United States",27.3386,-82.5431,722243
670,Mississauga,Canada,11.12,107.1,1.39,125.29,55.32,42.15,1171.02,1570.31,3413.29,"Mississauga,Canada",43.6,-79.65,721599
672,Cagayan de Oro,Philippines,1.79,6.28,1.25,49.34,26.01,20.93,229.26,192.88,239.23,"Cagayan de Oro,Philippines",8.4833,124.65,728402
673,Birmingham,United States,15.5,55,1.17,213.78,69.43,46.75,1025,1300,2929.9,"Birmingham,United States",33.5277,-86.7987,739573
674,Birmingham,United States,15.5,55,1.17,213.78,69.43,46.75,1025,1300,2929.9,"Birmingham,United States",42.5447,-83.2166,21389
675,Dayton,United States,8,55,1.09,136.81,67.21,29,900,1096.25,3333.33,"Dayton,United States",39.7797,-84.1998,718353
676,Dayton,United States,8,55,1.09,136.81,67.21,29,900,1096.25,3333.33,"Dayton,United States",30.0292,-94.9038,13987
677,Dayton,United States,8,55,1.09,136.81,67.21,29,900,1096.25,3333.33,"Dayton,United States",35.4912,-85.012,10410
678,Dayton,United States,8,55,1.09,136.81,67.21,29,900,1096.25,3333.33,"Dayton,United States",39.258,-119.5677,9363
679,Dayton,United States,8,55,1.09,136.81,67.21,29,900,1096.25,3333.33,"Dayton,United States",40.3815,-74.5137,7576
680,Dayton,United States,8,55,1.09,136.81,67.21,29,900,1096.25,3333.33,"Dayton,United States",45.1906,-93.4758,6686
681,Dayton,United States,8,55,1.09,136.81,67.21,29,900,1096.25,3333.33,"Dayton,United States",39.1127,-84.464,5609
682,An Najaf,Iraq,5.6,30,0.34,84.61,26.18,27.33,121.62,166.78,895,"An Najaf,Iraq",32.029,44.3396,724700
683,Sagamihara,Japan,6.33,0,1.4,106.04,35.24,0,217.15,297.81,0,"Sagamihara,Japan",35.5667,139.3667,722973
684,Okayama,Japan,6.7,0,1.03,186.13,31.57,52.12,74.45,409.49,1935.75,"Okayama,Japan",34.65,133.9167,720043
686,Soledad,Colombia,3.15,0,0.45,37.76,25.18,10.47,62.94,0,0,"Soledad,Colombia",10.92,-74.77,698852
687,Fresno,United States,15,37.5,1.48,280.82,67.72,34,2000,1333.33,4489.58,"Fresno,United States",36.7831,-119.7941,703498
688,Fresno,United States,15,37.5,1.48,280.82,67.72,34,2000,1333.33,4489.58,"Fresno,United States",29.5358,-95.4696,25072
689,Rochester,United States,20,56,1.23,150.75,67,41.25,600,908.33,4275,"Rochester,United States",43.168,-77.6162,703952
690,Rochester,United States,20,56,1.23,150.75,67,41.25,600,908.33,4275,"Rochester,United States",44.0151,-92.4778,119942
691,Rochester,United States,20,56,1.23,150.75,67,41.25,600,908.33,4275,"Rochester,United States",43.299,-70.9787,31526
692,Rochester,United States,20,56,1.23,150.75,67,41.25,600,908.33,4275,"Rochester,United States",42.6866,-83.1198,13296
693,Rochester,United States,20,56,1.23,150.75,67,41.25,600,908.33,4275,"Rochester,United States",41.059,-86.196,7046
694,Rochester,United States,20,56,1.23,150.75,67,41.25,600,908.33,4275,"Rochester,United States",41.76,-70.8385,5580
695,Bhiwandi,India,0.86,0,1.23,43.91,9.12,12.28,27.63,73.69,319.33,"Bhiwandi,India",19.3,73.0667,709665
697,Osasco,Brazil,5.75,38.32,1.26,54.28,20.44,16.6,253.86,287.39,370.41,"Osasco,Brazil",-23.5328,-46.7919,694844
698,Warangal,India,2.46,2.21,1.35,20.88,8.6,12.28,20.47,55.27,307.04,"Warangal,India",17.9756,79.6011,704570
699,Salem,India,1.23,12.28,1.33,18.42,9.83,47.08,48.62,118.72,276.34,"Salem,India",11.65,78.1667,693236
700,Latakia,Syria,2.99,14.23,0.5,13.21,50.67,10.97,22.5,147.5,41.25,"Latakia,Syria",35.5236,35.7917,700000
701,Banjarmasin,Indonesia,1.94,0,0.8,19.45,53.8,0,38.89,145.84,0,"Banjarmasin,Indonesia",-3.319,114.5921,692793
702,General Santos,Philippines,4.04,15.6,1.31,76.25,44.86,19.74,85.97,143.54,269.13,"General Santos,Philippines",6.1167,125.1667,697315
703,Bacoor,Philippines,3.59,0,1.25,44.86,39.24,26.91,134.57,0,0,"Bacoor,Philippines",14.4624,120.9645,664625
704,Hamilton,Canada,14.08,81.53,1.42,155.17,61.41,41.03,839.97,1193.25,2816.37,"Hamilton,Canada",43.2567,-79.8692,693645
705,Sevilla,Spain,10.54,37.04,1.82,121,37.07,40.83,389.89,674.18,1565.82,"Sevilla,Spain",37.39,-5.99,684234
707,Tolyatti,Russia,6.4,27.65,0.81,102.68,6.4,20.8,224,320,570.67,"Tolyatti,Russia",53.5167,49.4167,693072
708,Allentown,United States,22,0,1.26,181.25,63.17,35,0,1400,2745,"Allentown,United States",40.5961,-75.4756,683794
709,Kochi,India,1.84,9.83,1.29,18.8,8.26,14.98,78.94,185.17,630.31,"Kochi,India",9.9667,76.2833,677381
710,Shizuoka,Japan,4.84,134.01,1.13,106.04,35.24,86.86,217.15,446.71,2481.73,"Shizuoka,Japan",34.9756,138.3825,685589
711,Palermo,Italy,10.54,38.46,2.28,202.73,31.26,36.88,302.95,526.87,1334.74,"Palermo,Italy",38.1111,13.3517,668405
712,Tasikmalaya,Indonesia,1.62,0,0.78,21.36,55.1,0,27.01,81.02,194.46,"Tasikmalaya,Indonesia",-7.3333,108.2,678027
713,Rasht,Iran,5,0,0.71,31.69,18.2,51.31,356.25,836.22,341.25,"Rasht,Iran",37.2833,49.6,679995
714,Tulsa,United States,13.25,40,1.02,220.3,66.22,29.17,630.5,1043.75,5036.78,"Tulsa,United States",36.1284,-95.9042,671033
715,Gorakhpur,India,1.84,7.37,1.25,31.01,8.51,10.23,24.56,76.76,307.04,"Gorakhpur,India",26.7611,83.3667,673446
716,Cape Coral,United States,14.99,35,1.06,231.09,66.75,25.66,890,1850,3916.67,"Cape Coral,United States",26.6446,-81.9956,668382
717,Durango,Mexico,5.32,25.01,1.1,25.49,26.03,24.5,125.7,273.47,489.91,"Durango,Mexico",24.0167,-104.6667,654876
718,Bulawayo,Zimbabwe,3.5,30,1.32,80,55,25,178.5,233.33,350,"Bulawayo,Zimbabwe",-20.1667,28.5667,653337
719,Concord,United States,22,60,1.18,174.48,83.25,35,1200,1333.33,3200,"Concord,United States",37.9722,-122.0016,652308
720,Concord,United States,22,60,1.18,174.48,83.25,35,1200,1333.33,3200,"Concord,United States",35.3933,-80.6366,261801
721,Concord,United States,22,60,1.18,174.48,83.25,35,1200,1333.33,3200,"Concord,United States",43.2305,-71.5595,43627
722,Concord,United States,22,60,1.18,174.48,83.25,35,1200,1333.33,3200,"Concord,United States",42.462,-71.3639,19116
723,Concord,United States,22,60,1.18,174.48,83.25,35,1200,1333.33,3200,"Concord,United States",38.5117,-90.3574,17912
724,Concord,United States,22,60,1.18,174.48,83.25,35,1200,1333.33,3200,"Concord,United States",39.8741,-75.5135,17745
725,Concord,United States,22,60,1.18,174.48,83.25,35,1200,1333.33,3200,"Concord,United States",42.545,-78.7075,8484
726,Tlalnepantla,Mexico,2.71,0,1.08,29.22,25.78,92.82,154.71,0,618.83,"Tlalnepantla,Mexico",19.5367,-99.1947,653410
727,San Jose del Monte,Philippines,2.96,0,1.27,98.89,26.91,0,197.36,107.65,0,"San Jose del Monte,Philippines",14.8139,121.0453,651813
728,Sialkot City,Pakistan,1.68,4.92,0.65,50.55,32.04,11.92,20.12,67.05,128.52,"Sialkot City,Pakistan",32.5,74.5333,655852
729,Sargodha,Pakistan,0.45,0,1.08,22.35,23.83,8.94,55.88,67.05,257.04,"Sargodha,Pakistan",32.0836,72.6711,659862
730,Ansan,South Korea,5.38,0,1.35,65.62,20.74,30.73,153.65,0,1713.15,"Ansan,South Korea",37.3236,126.8219,652800
731,Sorocaba,Brazil,5.36,0,1.18,68.63,19.8,30.02,265.84,178.76,364.79,"Sorocaba,Brazil",-23.5019,-47.4578,644919
732,Contagem,Brazil,3.83,0,1.24,56.16,15.33,0,143.69,0,249.07,"Contagem,Brazil",-19.9319,-44.0539,648766
733,Izhevsk,Russia,8,20.8,0.83,105.39,7.25,36.36,232,288,562.29,"Izhevsk,Russia",56.85,53.2167,646277
734,Tripoli,Lebanon,10,50,0.93,158.33,56.67,48.75,233.33,450,833.33,"Tripoli,Lebanon",34.4333,35.8333,530000
735,Jeonju,South Korea,5.38,41.75,1.34,115.23,21.25,38.41,384.12,297.69,1536.46,"Jeonju,South Korea",35.8219,127.1489,631532
736,Petaling Jaya,Malaysia,2.96,22.79,0.47,43.82,23.13,33.62,179.08,425.45,917.35,"Petaling Jaya,Malaysia",3.1073,101.6067,638516
737,Cochabamba,Bolivia,2.89,0,0.54,18.1,59.78,39.05,174.31,273.03,503.29,"Cochabamba,Bolivia",-17.3935,-66.157,632013
738,Rotterdam,Netherlands,15.81,84.3,2.23,225.33,42.86,30.26,1596.57,1355.86,3188.36,"Rotterdam,Netherlands",51.9225,4.4792,631155
739,Stuttgart,Germany,12.64,76.08,2.24,239.55,35.23,45.44,391.2,1053.75,3411.99,"Stuttgart,Germany",48.7761,9.1775,630305
740,Gold Coast,Australia,13.59,108.73,1.34,121.47,50.37,45.69,1433.91,1410.94,3758.45,"Gold Coast,Australia",-28.0167,153.4,638090
741,Colorado Springs,United States,20.5,50,1.03,171.66,75,60.83,1158.33,1450,4563.77,"Colorado Springs,United States",38.8674,-104.7606,642413
742,Charleston,United States,21,57,1.01,237.34,64.62,24.75,1100,1900,4122.22,"Charleston,United States",32.8153,-79.9628,628377
743,Charleston,United States,21,57,1.01,237.34,64.62,24.75,1100,1900,4122.22,"Charleston,United States",38.3484,-81.6323,138706
744,Charleston,United States,21,57,1.01,237.34,64.62,24.75,1100,1900,4122.22,"Charleston,United States",39.4842,-88.1781,20117
745,Charleston,United States,21,57,1.01,237.34,64.62,24.75,1100,1900,4122.22,"Charleston,United States",36.9179,-89.3344,5468
746,Aracaju,Brazil,4.79,30.65,1.28,97.51,16.92,18.04,153.27,159.66,272.7,"Aracaju,Brazil",-10.9167,-37.05,632744
747,Makati City,Philippines,5.38,11.23,1.31,119.68,36.75,54.95,263.15,592.09,440.08,"Makati City,Philippines",14.55,121.0333,629616
748,Barnaul,Russia,5.6,9.6,0.78,100.07,6.88,29.93,216,346.67,480,"Barnaul,Russia",53.3567,83.7872,633301
749,Benghazi,Libya,2.73,20,0.04,14.4,65.41,24.18,82.3,171.47,276.94,"Benghazi,Libya",32.1167,20.0667,631555
750,Mangalore,India,1.84,6.14,1.26,24.5,9.21,20.47,85.97,132.03,307.04,"Mangalore,India",12.8703,74.8806,623841
751,Glasgow,United Kingdom,18.45,98.4,1.98,225.34,35.55,33.34,944.37,958.38,2977.24,"Glasgow,United Kingdom",55.8611,-4.25,626410
752,Kryvyi Rih,Ukraine,5.44,14.99,0.87,84.76,5.12,13.91,220.04,0,244.77,"Kryvyi Rih,Ukraine",47.9086,33.3433,629695
754,Springfield,United States,10,70,1.15,190.71,77.88,36.25,866.67,716.67,2833.33,"Springfield,United States",42.1155,-72.5395,623401
755,Springfield,United States,10,70,1.15,190.71,77.88,36.25,866.67,716.67,2833.33,"Springfield,United States",37.1943,-93.2916,288090
756,Springfield,United States,10,70,1.15,190.71,77.88,36.25,866.67,716.67,2833.33,"Springfield,United States",39.771,-89.6538,158509
757,Springfield,United States,10,70,1.15,190.71,77.88,36.25,866.67,716.67,2833.33,"Springfield,United States",39.9297,-83.7957,82820
758,Springfield,United States,10,70,1.15,190.71,77.88,36.25,866.67,716.67,2833.33,"Springfield,United States",44.0538,-122.981,63230
759,Springfield,United States,10,70,1.15,190.71,77.88,36.25,866.67,716.67,2833.33,"Springfield,United States",38.7809,-77.1839,32222
760,Springfield,United States,10,70,1.15,190.71,77.88,36.25,866.67,716.67,2833.33,"Springfield,United States",39.928,-75.3362,24247
761,Springfield,United States,10,70,1.15,190.71,77.88,36.25,866.67,716.67,2833.33,"Springfield,United States",40.0986,-75.2016,19693
762,Springfield,United States,10,70,1.15,190.71,77.88,36.25,866.67,716.67,2833.33,"Springfield,United States",36.4943,-86.8709,18241
763,Springfield,United States,10,70,1.15,190.71,77.88,36.25,866.67,716.67,2833.33,"Springfield,United States",40.6994,-74.3253,17406
764,Springfield,United States,10,70,1.15,190.71,77.88,36.25,866.67,716.67,2833.33,"Springfield,United States",43.2906,-72.4809,8989
765,Springfield,United States,10,70,1.15,190.71,77.88,36.25,866.67,716.67,2833.33,"Springfield,United States",30.1713,-85.6089,8577
766,Springfield,United States,10,70,1.15,190.71,77.88,36.25,866.67,716.67,2833.33,"Springfield,United States",39.8466,-76.7112,5659
767,Springfield,United States,10,70,1.15,190.71,77.88,36.25,866.67,716.67,2833.33,"Springfield,United States",32.3634,-81.3029,5224
768,Springfield,United States,10,70,1.15,190.71,77.88,36.25,866.67,716.67,2833.33,"Springfield,United States",42.3246,-85.2371,5198
769,Springfield,United States,10,70,1.15,190.71,77.88,36.25,866.67,716.67,2833.33,"Springfield,United States",40.5249,-75.2998,5040
770,Namangan,Uzbekistan,1.75,10,0.5,50,18.72,12.5,50,150,250,"Namangan,Uzbekistan",40.9953,71.6725,626120
771,Ulyanovsk,Russia,8,11.33,0.79,152.74,7.37,41.29,199.47,365.33,467.55,"Ulyanovsk,Russia",54.3167,48.3667,624518
772,Jos,Nigeria,1.58,0,0.4,31.52,55.44,0,56.28,675.42,112.57,"Jos,Nigeria",9.9333,8.8833,622802
773,Irkutsk,Russia,8.4,19.2,0.81,108.28,9.56,42.17,248,436,570,"Irkutsk,Russia",52.2833,104.3,623736
774,Pontianak,Indonesia,1.3,0,0.81,48.61,51.86,35.65,64.82,81.02,421.32,"Pontianak,Indonesia",-0.0206,109.3414,618388
775,Vladivostok,Russia,8,16,0.82,151.93,11.14,60.31,392,720,776,"Vladivostok,Russia",43.1167,131.9,606589
776,Khabarovsk,Russia,16,56,0.83,180.32,9.78,51.56,365.12,500,648,"Khabarovsk,Russia",48.4833,135.0667,616242
777,Kuantan,Malaysia,1.71,30.77,0.46,49.38,31.91,56.98,163.34,182.34,1177.59,"Kuantan,Malaysia",3.8167,103.3333,607778
778,Feira de Santana,Brazil,3.45,0,1.28,69.21,16.29,22.03,95.8,187.76,229.91,"Feira de Santana,Brazil",-12.2669,-38.9669,617528
779,Sanya,China,2.28,9.25,1.32,72.07,8.54,29.66,1423.55,427.06,498.24,"Sanya,China",18.2536,109.5019,614647
780,Grand Rapids,United States,15,35,1.24,118.29,62.38,34.17,1000,1580,5145.83,"Grand Rapids,United States",42.962,-85.6562,609314
781,Grand Rapids,United States,15,35,1.24,118.29,62.38,34.17,1000,1580,5145.83,"Grand Rapids,United States",47.238,-93.5327,11214
782,Yaroslavl,Russia,12.8,16,0.8,127.38,6.77,40,256,400,533.33,"Yaroslavl,Russia",57.6167,39.85,608079
783,Gothenburg,Sweden,11.62,78.93,1.96,117.13,30.25,33.35,117.61,1049.22,2782.04,"Gothenburg,Sweden",57.6717,11.981,604829
784,Bacolod,Philippines,2.15,10.77,1.25,45.7,30.86,27.51,235.74,372.3,209.32,"Bacolod,Philippines",10.6765,122.9509,600783
785,Bacolod,Philippines,2.15,10.77,1.25,45.7,30.86,27.51,235.74,372.3,209.32,"Bacolod,Philippines",8.1892,124.0238,24367
786,Jambi,Indonesia,1.3,0,0.84,38.24,0,0,48.61,97.23,0,"Jambi,Indonesia",-1.59,103.61,602187
787,Cimahi,Indonesia,1.3,0,0.78,34.32,36.58,16.2,71.84,0,324.1,"Cimahi,Indonesia",-6.8833,107.5333,586580
788,Cuttack,India,0.74,3.07,1.25,36.85,10.85,12.28,36.85,83.93,491.27,"Cuttack,India",20.465,85.8793,606007
789,Leipzig,Germany,9.48,85.35,2.29,238.91,39.37,29.39,207.06,581.54,2231.31,"Leipzig,Germany",51.3333,12.3833,597215
790,Durban,South Africa,8.55,44.48,1.22,145.62,46.45,27.8,173.63,351.67,1079.61,"Durban,South Africa",-29.8583,31.025,595061
791,Tuxtla,Mexico,4.64,0,1.18,48.6,25.4,0,366.14,0,0,"Tuxtla,Mexico",16.7528,-93.1167,598710
792,Suginami-ku,Japan,6.33,44.67,1.13,159.18,35.77,64.52,379.7,1295.46,0,"Suginami-ku,Japan",35.6833,139.6167,583609
793,Kawaguchi,Japan,6.33,58.07,1.08,136.5,37.23,55.84,409.49,0,0,"Kawaguchi,Japan",35.8078,139.7242,593353
795,Brampton,Canada,11.12,88.94,1.48,238.29,57.39,30.28,885.26,1425.48,3489.58,"Brampton,Canada",43.6833,-79.7667,593638
796,Pereira,Colombia,2.62,26.43,0.5,57.17,25.15,14.34,117.49,134.87,216.62,"Pereira,Colombia",4.8143,-75.6946,590554
797,Kagoshima,Japan,8.93,59.56,1.1,94.93,40.95,0,215.91,595.61,2680.27,"Kagoshima,Japan",31.58,130.5281,593754
798,Dortmund,Germany,12.64,73.76,2.32,297.52,37.5,25.74,245.87,700.74,2646.41,"Dortmund,Germany",51.5139,7.4653,587696
800,Mar del Plata,Argentina,5,10,0.69,62.22,21.2,30,71.25,172.5,365.67,"Mar del Plata,Argentina",-38,-57.55,593337
801,Makhachkala,Russia,4.8,0,0.81,68.72,11.15,40,160,368,453.33,"Makhachkala,Russia",42.9833,47.4833,592976
802,Albany,United States,13.5,32.5,1.23,143.7,68.88,25,1200,1300,4825,"Albany,United States",42.6664,-73.7987,586383
803,Albany,United States,13.5,32.5,1.23,143.7,68.88,25,1200,1300,4825,"Albany,United States",37.8898,-122.3018,19696
804,Albany,United States,13.5,32.5,1.23,143.7,68.88,25,1200,1300,4825,"Albany,United States",31.5776,-84.1762,89217
805,Albany,United States,13.5,32.5,1.23,143.7,68.88,25,1200,1300,4825,"Albany,United States",44.6274,-123.0966,62880
806,Knoxville,United States,14,60.11,1.14,193.04,65.4,35.83,1087.5,1218.75,3950,"Knoxville,United States",35.9692,-83.9496,586048
807,Knoxville,United States,14,60.11,1.14,193.04,65.4,35.83,1087.5,1218.75,3950,"Knoxville,United States",41.3188,-93.1024,7199
808,Bucaramanga,Colombia,2.52,31.47,0.5,48.88,15.47,17.38,90.74,171.77,234.4,"Bucaramanga,Colombia",7.1186,-73.1161,581130
809,Mission Viejo,United States,14,0,1.58,237.28,68.83,23.33,683.33,2400,4805,"Mission Viejo,United States",33.6095,-117.655,590249
810,Reynosa,Mexico,7.99,15.47,0.89,38.1,21.92,18.05,321.45,193.38,541.47,"Reynosa,Mexico",26.0922,-98.2778,589466
811,Essen,Germany,11.59,84.3,2.32,233.34,39.52,20.42,305.59,965.93,2928.53,"Essen,Germany",51.4508,7.0131,582415
812,Genoa,Italy,15.81,48.47,2.19,151.61,31.07,54.33,651.21,679.67,1413.34,"Genoa,Italy",44.4072,8.934,580097
813,Bakersfield,United States,16,31,1.56,312.5,74,35,750,1175,3366.02,"Bakersfield,United States",35.3529,-119.0359,579295
814,Shah Alam,Malaysia,2.28,22.79,0.47,33.98,26.89,36.47,135.61,303.89,1127.81,"Shah Alam,Malaysia",3.0833,101.5333,584340
815,Ogden,United States,11,85,1.12,121.81,62,56.33,0,1300,3182.67,"Ogden,United States",41.2278,-111.9682,578523
816,Ogden,United States,11,85,1.12,121.81,62,56.33,0,1300,3182.67,"Ogden,United States",43.1646,-77.822,20341
817,Ogden,United States,11,85,1.12,121.81,62,56.33,0,1300,3182.67,"Ogden,United States",34.2656,-77.7965,8408
818,Puente Alto,Chile,5.09,0,0.97,101.87,16.98,0,282.97,0,452.74,"Puente Alto,Chile",-33.6167,-70.5833,573935
819,Tomsk,Russia,8,29.6,0.8,119.99,7.33,40.88,134,416,635.43,"Tomsk,Russia",56.4886,84.9522,572740
820,Bristol,United Kingdom,18.45,102.58,1.96,261.88,41.46,35.94,1426.8,1343.04,2851.94,"Bristol,United Kingdom",51.45,-2.5833,567111
821,Bremen,Germany,12.64,71.44,2.28,222.28,36.88,25.95,453.18,658.59,2300.6,"Bremen,Germany",53.0769,8.8089,566573
822,Akron,United States,22,50,1.24,233.75,69.29,28.33,600,600,2786.77,"Akron,United States",41.0798,-81.5219,565208
823,Irbid,Jordan,3.52,14.8,1.21,78.13,33.48,32.9,85.37,177.24,528.69,"Irbid,Jordan",32.5556,35.85,569068
824,Baton Rouge,United States,19,56,1.05,134.22,54,50,641.67,1300,3566.67,"Baton Rouge,United States",30.4418,-91.131,570308
825,Ensenada,Mexico,6.19,15.47,1.11,93.53,21.87,37.82,270.74,464.12,532.88,"Ensenada,Mexico",31.8578,-116.6058,557430
826,Columbia,United States,15,50,1.03,162.37,60.99,38,500,1497,5711.11,"Columbia,United States",34.0376,-80.9037,560041
827,Columbia,United States,15,50,1.03,162.37,60.99,38,500,1497,5711.11,"Columbia,United States",38.9478,-92.3256,141645
828,Columbia,United States,15,50,1.03,162.37,60.99,38,500,1497,5711.11,"Columbia,United States",39.2004,-76.859,103991
829,Columbia,United States,15,50,1.03,162.37,60.99,38,500,1497,5711.11,"Columbia,United States",35.6235,-87.0486,40663
830,Columbia,United States,15,50,1.03,162.37,60.99,38,500,1497,5711.11,"Columbia,United States",38.4581,-90.2156,10513
831,Columbia,United States,15,50,1.03,162.37,60.99,38,500,1497,5711.11,"Columbia,United States",40.0348,-76.4944,10355
832,Columbia,United States,15,50,1.03,162.37,60.99,38,500,1497,5711.11,"Columbia,United States",31.2564,-89.8266,6468
833,Columbia,United States,15,50,1.03,162.37,60.99,38,500,1497,5711.11,"Columbia,United States",41.6939,-72.3072,5417
834,New Haven,United States,15,65,1.3,188.61,64.28,27.5,1650,1725,4162.33,"New Haven,United States",41.3112,-72.9246,564830
835,New Haven,United States,15,65,1.3,188.61,64.28,27.5,1650,1725,4162.33,"New Haven,United States",41.0675,-85.0175,15922
836,Orenburg,Russia,18,25.6,0.81,123.13,7.2,24,0,288,661.18,"Orenburg,Russia",51.7667,55.1,564443
838,Dresden,Germany,10.54,67.02,2.3,249.36,32.9,36.13,242.07,577.66,2579.58,"Dresden,Germany",51.05,13.74,554907
839,Nellore,India,1.35,3.07,1.56,44.67,9.01,24.56,51.17,106.44,593.62,"Nellore,India",14.4333,79.9667,547621
840,Surakarta,Indonesia,1.3,9.72,0.8,32.41,23.77,22.69,68.06,211.74,132.88,"Surakarta,Indonesia",-7.5667,110.8167,552118
841,Kemerovo,Russia,3.95,0,0.81,107.1,7.2,28.33,345.14,400,504.53,"Kemerovo,Russia",55.3333,86.0667,556920
842,Manchester,United Kingdom,18.45,86.1,2.02,255.46,34.03,32.27,1236.7,1137.01,2799.28,"Manchester,United Kingdom",53.4794,-2.2453,547627
843,Juiz de Fora,Brazil,2.78,42.05,1.28,84.62,20.12,17.24,229.91,172.43,268.23,"Juiz de Fora,Brazil",-21.75,-43.35,555284
844,Novokuznetsk,Russia,5.57,0,0.81,120.33,4.87,53.47,216.79,305.46,411.29,"Novokuznetsk,Russia",53.75,87.1167,552105
845,Chiclayo,Peru,2.61,0,0.9,26.63,39.16,24.37,71.79,117.48,267.59,"Chiclayo,Peru",-6.763,-79.8366,552508
847,Londrina,Brazil,3.83,0,1.29,59.39,16.48,18.17,319.32,175.63,389.57,"Londrina,Brazil",-23.31,-51.1628,548249
848,Heroica Matamoros,Mexico,4.13,15.47,0.85,75.42,34.55,25.78,379.25,309.41,515.69,"Heroica Matamoros,Mexico",25.8797,-97.5042,541979
849,Muntinlupa City,Philippines,4.49,10.77,1.12,98.68,32.88,49.79,74.76,403.7,448.55,"Muntinlupa City,Philippines",14.3833,121.05,543445
850,Samarkand,Uzbekistan,5,10,0.91,32.5,15,36.67,200,275,253.33,"Samarkand,Uzbekistan",39.6542,66.9597,546303
851,Hannover,Germany,10.54,73.76,2.32,231.32,32.27,40.64,395.68,755.18,2664.16,"Hannover,Germany",52.3744,9.7386,542668
852,Valledupar,Colombia,1.91,40,0.5,82.77,26.07,29.66,106.64,150.81,525.88,"Valledupar,Colombia",10.4603,-73.2597,544134
853,Ajmer,India,0.86,7.37,1.23,12.28,4.9,18.42,18.42,85.97,368.45,"Ajmer,India",26.468,74.639,542321
854,City of Calamba,Philippines,2.78,5.31,1.25,62.49,36.75,0,263.15,125.59,269.13,"City of Calamba,Philippines",14.2167,121.1667,539671
855,Antwerp,Belgium,18.97,51.63,2.01,208.83,52.69,44.78,442.57,854.46,2510.02,"Antwerp,Belgium",51.2211,4.3997,529247
856,Ryazan,Russia,8,22.56,0.8,120.86,8.5,57.33,348,304,544,"Ryazan,Russia",54.6167,39.7167,537622
857,Lyon,France,15.81,69.76,2.1,184.48,38.89,36.27,421.5,837.07,2714.26,"Lyon,France",45.76,4.84,518635
858,Astrakhan,Russia,6.4,0,0.84,61.82,5.6,25.6,0,320,305.17,"Astrakhan,Russia",46.3333,48.0167,532504
859,Naberezhnyye Chelny,Russia,8,13.6,0.78,122.75,6.51,45.33,293.33,304,656,"Naberezhnyye Chelny,Russia",55.7,52.3333,529797
860,Agartala,India,3.07,4.91,1.28,12.28,5.53,12.28,34.66,116.68,307.04,"Agartala,India",23.8333,91.2667,522613
861,Ndola,Zambia,3,0,1.36,140.69,103.74,0,171.24,0,0,"Ndola,Zambia",-12.9683,28.6337,528330
862,Himeji,Japan,7.45,223.36,0.93,148.9,31.57,29.78,595.61,893.42,2478.82,"Himeji,Japan",34.8167,134.6833,527596
863,Villavicencio,Colombia,1.68,27.37,0.51,33.62,20.97,15.73,41.96,209.8,335.68,"Villavicencio,Colombia",4.1425,-73.6294,527668
864,Ciudad Apodaca,Mexico,8.77,0,1.13,51.57,28.36,25.78,0,257.84,670.4,"Ciudad Apodaca,Mexico",25.7833,-100.1833,523370
865,Sheffield,United Kingdom,13.53,90.91,1.95,233.67,34.85,35.42,1141.85,837.08,2265.71,"Sheffield,United Kingdom",53.3808,-1.4703,518090
866,Penza,Russia,7.2,0,0.82,110.41,9.2,29.33,0,320,522.04,"Penza,Russia",53.2,45,523726
867,Port Said,Egypt,3.26,16.28,0.37,26.53,9.77,15.6,89.99,189.92,149.23,"Port Said,Egypt",31.25,32.2833,524433
868,Mesa,United States,13,64,1.39,177.33,76.5,20.86,987.5,1606.17,4644.44,"Mesa,United States",33.4017,-111.718,518012
869,Pohang,South Korea,5.38,0,1.15,98.44,25.77,0,507.03,268.88,2304.69,"Pohang,South Korea",36.0322,129.365,520305
870,Liverpool,United Kingdom,18.45,85.57,1.91,214.48,37.18,34.64,1175.53,920.1,2263.4,"Liverpool,United Kingdom",53.4075,-2.9919,513441
871,Nuremberg,Germany,10.54,84.3,2.29,236.07,34.94,29.5,364.6,713.91,2992.03,"Nuremberg,Germany",49.4539,11.0775,515543
872,Surrey,Canada,13.34,88.94,1.56,168.08,67.17,31.76,907.91,1255.84,3800.35,"Surrey,Canada",49.19,-122.8489,517887
873,Utsunomiya,Japan,8.19,44.67,1.14,223.36,29.78,74.45,223.36,446.71,2680.27,"Utsunomiya,Japan",36.55,139.8833,518197
874,Suez,Egypt,2.85,6.19,0.34,29.55,13.13,18.31,23.97,52.91,196.71,"Suez,Egypt",29.9667,32.5333,516959
875,Ujjain,India,3.68,7.37,1.34,14.74,7.98,6.14,13.51,79.83,491.27,"Ujjain,India",23.1828,75.7772,515215
876,Santa Marta,Colombia,3.15,21.76,0.51,87.14,27.67,16.61,71.51,239.67,219.89,"Santa Marta,Colombia",11.2361,-74.2017,515556
877,Joinvile,Brazil,5.27,45.98,1.27,79.22,23.21,20.75,242.68,258.65,313.25,"Joinvile,Brazil",-26.3039,-48.8458,515288
879,Lipetsk,Russia,6.4,0,0.79,116.73,8.2,45.33,192,480,629.33,"Lipetsk,Russia",52.6167,39.6,510439
880,Choloma,Honduras,2.53,0,1.15,45,74.47,0,33,96.25,520,"Choloma,Honduras",15.6333,-88,510456
882,Matsuyama,Japan,5.96,0,1.08,151.77,40.45,55.84,282.92,640.29,0,"Matsuyama,Japan",33.8333,132.7667,506743
883,Palm Bay,United States,18.5,0,0,214.92,55,32.5,300,1050,0,"Palm Bay,United States",27.955,-80.6627,507002
885,Lapu-Lapu City,Philippines,2.69,39,1.39,76.16,31.09,53.83,152.51,287.09,311,"Lapu-Lapu City,Philippines",10.3127,123.9488,497604
886,Jammu,India,4.3,6.14,1.21,22.45,7.12,19.34,22.79,139.19,327.51,"Jammu,India",32.7333,74.85,502197
887,Ichikawa,Japan,5.58,74.45,1.02,316.42,22.34,22.34,595.61,0,1678.89,"Ichikawa,Japan",35.7219,139.9311,496657
888,Ichikawa,Japan,5.58,74.45,1.02,316.42,22.34,22.34,595.61,0,1678.89,"Ichikawa,Japan",34.9894,134.7631,11023
